stop_id,stop_name,stop_desc,stop_lat,stop_lon
1,Trento-Autostaz.,,46.070785,11.118461
2,Trento-Solteri Bivio Ss.12,,46.084046,11.119732
3,Trento-Bren Center,,46.091322,11.115664
4,Lavis,,46.138361,11.109139
5,S.Michele A/Adige,,46.193684,11.132524
6,Salorno-Salurn,,46.240611,11.208106
7,Laghetti-Laag,,46.271948,11.238975
8,Egna-Neumarkt,,46.315973,11.272452
9,Cela-Aguai Bivio,,46.291364,11.418721
10,Castello di F.-Via Stazione,,46.282069,11.428969
11,Castello di Fiemme,,46.281206,11.434741
12,Cavalese-Bivio Carano,,46.287417,11.441664
14,Cavalese-P.Zza Partigiani,,46.291890,11.455508
15,Cavalese-Piazza G.Verdi,,46.290334,11.460692
17,Tesero-Giardino Dolomiti,,46.292465,11.484695
18,Tesero-Loc. Piera,,46.292007,11.492392
19,Tesero,,46.288877,11.510913
20,Panchià-Casa Cantoniera,,46.287144,11.531920
21,Panchia',,46.285513,11.541747
22,Ziano di Fiemme,,46.286705,11.560498
23,Ziano di Fiemme-Alla Roda,,46.288617,11.569941
24,Predazzo-Borgo Nuovo,,46.306538,11.598956
25,Predazzo-Autostaz.,,46.309520,11.604929
26,Predazzo-Distributore Agip,,46.317177,11.597112
27,Predazzo-Impianti Latemar,,46.328660,11.600173
28,Mezzavalle,,46.337415,11.609737
29,Forno,,46.347220,11.624669
30,Forno-Albergo Foresta,,46.355078,11.634437
31,Moena-Caserma Carabinieri,,46.369532,11.652359
32,Moena-Albergo Trentino,,46.373211,11.655352
33,Moena-Biglietteria,,46.374654,11.657920
34,Moena-Pezzè,,46.381214,11.665691
35,Soraga-Hotel Al Lago,,46.392382,11.666700
36,Soraga,,46.396748,11.669557
37,Vigo di Fassa,,46.421404,11.676292
38,S.Giovanni di Fassa,,46.421216,11.682022
39,Pozza di Fassa,,46.427261,11.682917
40,Pera di Fassa,,46.435925,11.690519
41,Pera di Fassa-Loc. Al Ponte,,46.441657,11.695427
42,Mazzin di Fassa,,46.457958,11.701369
43,Campestrin,,46.462994,11.715177
44,Fontanazzo,,46.469686,11.727819
45,Campitello di Fassa,,46.476504,11.740797
46,Canazei-Hotel Caminetto,,46.479175,11.759202
47,Canazei-Gries,,46.477899,11.763966
48,Canazei-Via Pareda,,46.476409,11.770873
49,Canazei-Funivia Belvedere,,46.474083,11.774376
50,Canazei-Difr.Hotel Faloria,,46.471558,11.777820
51,Alba di Canazei-Hotel Ariston,,46.466319,11.780898
52,Alba di Canazei,,46.461948,11.783003
53,Alba di Canazei-Fun.Ciampac,,46.459388,11.786093
55,Penia-Hotel Panarel,,46.457384,11.801813
56,Penia Alta,,46.458443,11.799745
59,Penia,,46.457708,11.791880
61,Alba di Canazei,,46.462156,11.782952
62,Canazei-Hotel Faloria,,46.471440,11.777940
63,Canazei-Funivia Belvedere,,46.474069,11.774728
64,Canazei-Gries,,46.478025,11.763972
65,Canazei-Hotel Caminetto,,46.479389,11.759638
67,Fontanazzo,,46.469607,11.726995
68,Pozza di Fassa,,46.427925,11.683281
69,Cavalese-Via Esterle,,46.293121,11.457264
70,Cavalese-Hotel Garden,,46.289434,11.447907
71,Laghetti-Laag,,46.272132,11.238775
72,Salorno-Salurn,,46.240218,11.207190
73,Lavis,,46.136956,11.109568
74,Trento-Stazione Fs,,46.072600,11.120056
77,Trento-Assoc. Artigiani,,46.082969,11.120310
80,Gardolo-Bivio Spini,,46.118886,11.106155
81,Gardolo-Loc.Lamar,,46.128918,11.109495
82,Lavis-Via Cembra 16,,46.143208,11.106619
83,Lavis-Via Bresadola,,46.143938,11.112489
84,Lavis-Tornante-Via Cembra 50,,46.141935,11.114444
85,Maso Franch,,46.143816,11.118841
86,Mosana-Loc. Ai Castagnari,,46.150492,11.125740
87,Mosana,,46.154400,11.137231
88,Verla,,46.157055,11.152529
89,Verla-Cantina Rossi,,46.154873,11.155408
90,Valternigo,,46.160790,11.158790
91,Ville di Giovo,,46.165785,11.157341
92,Ville di Giovo-Maso Roncador,,46.162212,11.140586
93,Passo Croce,,46.161487,11.134622
94,Palu' di Giovo,,46.158215,11.140403
95,Verla-Bivio,,46.155898,11.160681
97,Lisignago,,46.160457,11.187635
98,Lisignago-Loc.Bedin,,46.164966,11.203565
99,Cembra-Cimitero,,46.174519,11.217348
100,Cembra,,46.174956,11.221714
101,Fadana,,46.177555,11.225071
102,Cembra-Loc.Molini,,46.180271,11.228397
103,Faver Bivio,,46.180959,11.231881
104,Faver,,46.181716,11.237795
105,Faver-Ufficio Postale,,46.183755,11.240754
106,Faver-Loc. Portegnago,,46.197032,11.246634
107,Valda-Capitello,,46.207069,11.262068
108,Valda,,46.206784,11.266464
110,Grauno,,46.229415,11.298255
111,Capriana-Case Nuove,,46.261033,11.339913
112,Capriana,,46.262789,11.339456
113,Capriana-Albergo Miravalle,,46.262057,11.343992
114,Carbonare-Rover,,46.266757,11.351746
115,Stramentizzo Bivio,,46.266504,11.406487
116,Molina di Fiemme-Paese,,46.272357,11.417227
117,Molina di F.-Via Segherie,,46.272436,11.424112
118,Molina di Fiemme-Scuole,,46.274181,11.416707
119,Castello di Fiemme-Conc.Fiat,,46.278941,11.430137
121,Castello di Fiemme,,46.281233,11.434752
123,Molina di Fiemme-Via Segherie,,46.272409,11.424124
124,Grumes,,46.221516,11.294054
125,Faver,,46.181189,11.236672
126,Fadana,,46.178185,11.225990
127,Cembra,,46.175121,11.222045
129,Ceola,,46.159543,11.170891
130,Verla,,46.157152,11.152810
131,Lavis-Via Bresadola,,46.143962,11.112745
133,Lamar di Gardolo-Ss.12-Ftm,,46.125856,11.107861
134,Gardolo-Ss.12,,46.108559,11.108767
135,Gardolo-Cicli Moser,,46.102641,11.110469
137,Casatta di Valfloriana,,46.250381,11.344532
138,Barcatta,,46.250421,11.349659
139,Villaggio Italo-Svizzero,,46.247854,11.346661
140,Dora',,46.251863,11.355635
141,Palu' di Sicina,,46.256917,11.363017
142,Casanova di Sicina,,46.241992,11.349809
143,Valle,,46.238605,11.351281
144,Montalbiano,,46.234426,11.355133
145,Sicina,,46.230004,11.358752
532,Trento-Via Giusti-Cimitero,,46.064205,11.119435
533,Trento-Via V.Veneto,,46.057701,11.119291
535,Trento-Via Lorenzoni,,46.058380,11.122963
537,Trento-Via S.Francesco,,46.066636,11.126202
538,Montesover,,46.217084,11.327086
539,Montesover-Strada Vernera,,46.218166,11.326641
540,Montesover-Strada Vernera 17,,46.217389,11.324145
541,Montesover-Carrozzeria,,46.215296,11.328103
542,Sveseri Bivio,,46.207640,11.327808
543,Piazzoli,,46.214463,11.323294
544,Facendi,,46.214915,11.321421
546,Sover,,46.223891,11.312418
548,Nave S.Felice,,46.164603,11.112269
549,Sorni Bivio,,46.174975,11.122031
551,Sorni,,46.173837,11.120538
552,Nave S.Felice,,46.166611,11.112923
557,Cavalese-Case Itea,,46.289538,11.469412
559,Milon,,46.285862,11.479729
560,Masi-Campo Sportivo,,46.283459,11.480809
561,Masi-Piccolo Bar,,46.283360,11.483310
562,Masi di Cavalese,,46.283280,11.485357
563,Masi-Via Chiesa Civ.118,,46.284431,11.489109
564,Marco di Cavalese,,46.290351,11.476383
566,Carano-Bar Sport,,46.292292,11.442660
567,Carano-Municipio,,46.292221,11.440488
568,Carano,,46.291789,11.438794
569,Carano-Albergo Bagni,,46.290458,11.438774
570,Carano-Garnì Belvedere,,46.287392,11.435856
572,Villaggio Veronza-Bv.Pizzeria,,46.287843,11.428652
574,Villaggio Veronza-Via Pale,,46.288769,11.431450
575,V.Veronza-H.Veronza,,46.289865,11.433202
578,Trento-Via Valsugana,,46.068327,11.136287
579,Ponte Alto,,46.073787,11.150439
580,Pinè Bivio,,46.081905,11.194970
581,Sille,,46.086063,11.202932
582,Madrano-Belvedere,,46.084668,11.210388
584,Madrano,,46.085924,11.214313
585,Madrano-Via Della Vizza,,46.091338,11.212180
586,Nogare',,46.103925,11.211299
587,S.Mauro-Bivio,,46.116607,11.222363
588,Tressilla,,46.128796,11.237227
589,Baselga P.-Municipio,,46.130017,11.243841
590,Baselga di Pine'-Lago,,46.135502,11.249837
591,Sternigo Bivio,,46.141638,11.257922
592,Rizzolaga,,46.146547,11.264079
593,Campolongo,,46.149594,11.269501
594,Piazze Bivio,,46.155593,11.278561
595,Piazze di Bedollo,,46.155636,11.288077
596,Castellani-Regnana Bivio,,46.159769,11.298666
597,Centrale di Bedollo,,46.160828,11.302262
598,Bedollo,,46.164985,11.301342
599,Bedollo Bivio,,46.170023,11.312441
600,Bedollo Villaggio,,46.172909,11.317053
601,Brusago-Via Verdi,,46.175772,11.321442
602,Brusago,,46.182123,11.325860
603,Brusago-Civ. 4,,46.186573,11.329595
604,Brusago-Maso Gabart,,46.194274,11.327788
605,Sette Fontane Bivio,,46.199008,11.327741
606,Sveseri,,46.206441,11.323666
607,Bedollo,,46.164986,11.301527
608,Piazze di Bedollo,,46.155858,11.287334
609,Campolongo,,46.149606,11.269113
610,Pinè Bivio,,46.081958,11.196441
611,Ponte Alto,,46.073949,11.150317
612,Trento-Port'aquila,,46.069905,11.128513
613,Trento-Via Perini,,46.060824,11.124153
614,Civezzano-Centro Europa,,46.083514,11.199034
615,Civezzano-Quadrivio,,46.090068,11.185168
616,Civezzano,,46.091869,11.183174
617,Cirè-Superstrada,,46.077733,11.204086
618,Torchio,,46.090705,11.197409
619,Cogatti,,46.093519,11.196416
620,Seregnano,,46.094472,11.200444
621,Roverè,,46.090452,11.193247
622,Bampi Bivio,,46.093747,11.190641
623,Barbaniga,,46.101736,11.186340
624,S.Agnese,,46.106347,11.183849
625,S.Agnese-Difr. Al Civ. 64,,46.106519,11.186159
626,Mazzanigo,,46.103635,11.189195
627,Penedallo-Difr. Al Civ. 1,,46.102875,11.191745
628,Penedallo,,46.101014,11.192553
629,Bosco di Civezzano,,46.111066,11.170991
630,Bosco-Loc. Canova,,46.113877,11.175541
632,Torchio-S.P. 71,,46.091408,11.198343
633,Valle Fornace,,46.111868,11.210363
634,Fornace Bivio,,46.119436,11.216130
636,Fornace,,46.118058,11.208113
637,Fornace-Via Campogrande 5,,46.120699,11.209196
638,S.Stefano,,46.128531,11.212040
639,Fornace-Maso Donati,,46.120439,11.216456
640,Lases,,46.143536,11.218874
641,Albiano-Via Roma Civ.35,,46.143814,11.198966
642,Albiano,,46.144616,11.193779
643,Albiano-Via S.Antonio Civ.54,,46.146254,11.190465
644,Albiano-Via S.Antonio Civ 90,,46.148464,11.187406
646,Lases-Civ. 30,,46.144611,11.219172
647,Lases-Loc. Ronc Del Mela,,46.149542,11.221571
648,Lona-Via Provinciale,,46.156073,11.230504
649,Lona,,46.160390,11.234805
650,Lona-Loc. Piazzole,,46.162898,11.240964
651,Sevignano,,46.170787,11.247119
652,Piazzo di Segonzano Bivio,,46.180041,11.257966
653,Scancio di Segonzano,,46.187468,11.258374
654,Scancio di Segonzano-Snack Bar,,46.191890,11.259595
655,Scancio di Segonzano Mad.Aiuto,,46.196166,11.258614
656,Gaggio/Gresta Bivio,,46.207792,11.286819
657,Valcava Bivio,,46.217867,11.305176
658,Sover-Bar Vittoria,,46.221404,11.314764
660,Sover-Loc. Mezauno,,46.231131,11.318876
662,Piscine-Loc. Grava,,46.246752,11.332537
664,Pradel,,46.260328,11.355420
665,Loc. Ronco,,46.260433,11.384836
666,Loc. Melae,,46.263127,11.397791
667,Stramentizzo-Bivio,,46.266408,11.406559
669,Pradel,,46.262398,11.355420
670,Scancio di Segonzano,,46.191607,11.258893
671,Lases-Distributore Esso,,46.150438,11.222695
672,Lases-Pesa,,46.143739,11.218683
673,Pergine V.,,46.061248,11.237033
675,Pergine-Via Baratieri,,46.063947,11.242777
676,Pergine-Distr. Tamoil,,46.065170,11.247430
677,Zivignago,,46.067276,11.252921
678,Zivignago-Cons.S.Orsola,,46.070153,11.257161
679,Canezza-Maso Staifer,,46.075901,11.268702
682,Canezza,,46.076974,11.274491
683,Canezza-Dif. Al Sole,,46.080149,11.275946
684,Canezza-Maso Dràzeri,,46.084557,11.277669
685,Viarago-Bivio,,46.086386,11.277786
686,Mala-Loc.Agnoletti,,46.088686,11.279793
687,Mala,,46.090560,11.281513
688,S.Orsola-Loc.Mantovani,,46.095743,11.289216
689,Stefani,,46.098590,11.294205
690,S.Orsola-Loc.Bertoldi,,46.102573,11.298243
691,S.Orsola,,46.107693,11.301880
693,S.Orsola-Loc.Donadi,,46.111674,11.306197
694,Bagni Terme di S.Orsola,,46.113764,11.307889
695,S.Orsola-Loc. Doss Martin,,46.114670,11.307600
696,Marcheli-Bivio Borti E Cont,,46.117554,11.310066
697,Fontanari-Maso Marcheli,,46.119434,11.313238
698,Fontanari,,46.121169,11.316456
699,Palù Del F.-Redebus,,46.130238,11.340914
700,Palù Del F.-Loc. Sigismondi,,46.129804,11.344495
701,Palù Del F.-Hotel Lagorai,,46.129512,11.348876
702,Palu' Del Fersina,,46.129731,11.352867
703,S.Orsola,,46.107831,11.302005
708,Moena-Hotel Campagnola,,46.374003,11.665009
709,Alpe Lusia,,46.367804,11.686058
710,Fango,,46.368794,11.728398
711,Fango-Alb. Negritella,,46.374785,11.751966
712,P.So S.Pellegrino-Segg.Cost.,,46.378743,11.784393
713,Passo S.Pellegrino-Ht.Arnika,,46.378138,11.789632
714,P.So S.Pellegrino-Chiesetta,,46.378321,11.793369
715,P.So S.Pellegrino-Fun.C.Mar.,,46.379108,11.802051
716,P.So S.Pellegrino-B. V.Freda,,46.378808,11.813507
717,Zingari,,46.376208,11.820593
718,Falcade Alto,,46.355341,11.858411
719,Falcade-Chiesa,,46.354314,11.861698
720,Falcade-Via Serafini,,46.355060,11.866761
721,Falcade,,46.358372,11.872868
722,Trento-Off.Conotter,,46.076776,11.100106
723,Trento-Via Brescia 4,,46.070536,11.111496
724,Montevideo,,46.080369,11.098522
725,Cadine,,46.088572,11.064986
726,Terlago Bivio,,46.091545,11.055126
727,Vigolo Baselga-Paese,,46.081449,11.044965
728,Vigolo Baselga-Pallonc.Rosso,,46.077626,11.032474
729,Vezzano,,46.078475,10.999800
731,Vezzano-Bivio Val di Cavedine,,46.071568,10.994704
733,Padergnone-Loc.Barbazan,,46.060053,10.990529
734,Padergnone,,46.062089,10.988852
735,Padergnone-Case Enel,,46.058818,10.982886
736,Due Laghi-Hotel Miralaghi,,46.058851,10.979182
737,Castel Toblino,,46.056347,10.965437
739,Sarche-Maso Caffaro,,46.046073,10.945217
740,Sarche-Bar Miravalle,,46.044456,10.944797
741,Comano Terme,,46.041193,10.881910
742,Ponte Arche-Autost.,,46.035587,10.873617
743,Ponte Arche-Bel Sit,,46.036219,10.864709
744,Ponte Ragoli-Sp34 Dir. Ragoli,,46.050484,10.785337
746,Zuclo Ss237 "Superm. Lidl",,46.040152,10.748601
748,Ponte Ragoli-Ss.237-Dir. Saone,,46.049764,10.785625
749,Ragoli-Pez,,46.051079,10.781306
750,Ragoli,,46.050989,10.776581
751,Preore,,46.046154,10.758110
752,Preore-Loc.Signor,,46.044621,10.752413
754,Zuclo Bivio-Segheria Tonello,,46.038745,10.744295
755,Bolbeno-Bivio,,46.033970,10.735274
756,Tione-Bar Arnò,,46.034864,10.732481
757,Tione-Autostazione,,46.033132,10.726114
758,Tione-Via Circonvallaz.,,46.040222,10.727473
759,Verdesina Bivio,,46.056997,10.716268
760,Villa Rendena,,46.062476,10.712201
761,Iavrè,,46.068036,10.711738
762,Iavrè-Artigianato,,46.070709,10.713789
763,Darè,,46.075923,10.717568
764,Vigo Rendena,,46.078733,10.718957
765,Vigo Rendena-Biv.Val S.Val.,,46.082037,10.722143
766,Pelugo,,46.087322,10.723226
767,Pelugo-Artigianato,,46.088071,10.725461
768,Borzago,,46.098857,10.734738
769,Spiazzo Rendena,,46.101557,10.736556
772,Strembo-Bivio Bocenago,,46.118184,10.752834
773,Strembo,,46.120371,10.751922
774,Caderzone,,46.128901,10.756508
775,Caderzone-Off. Alfa Romeo,,46.131787,10.764304
776,Giustino,,46.145927,10.768305
777,Giustino-Hotell Royal,,46.153692,10.766169
778,Pinzolo,,46.157164,10.765988
779,Pinzolo-Funivie,,46.163441,10.765458
780,Carisolo,,46.169320,10.764149
781,Carisolo-Pinemonte Basso,,46.188013,10.772362
782,S.Antonio di M.-Camping Faè,,46.185864,10.779174
783,S.Antonio di M.-Biv.V.Nambr.,,46.188184,10.777525
784,S.Antonio di M.-Vigili Fuoco,,46.190113,10.785440
785,S.Antonio di Mavignola,,46.191260,10.788625
786,S.Antonio di M.-Rio Fornas,,46.193908,10.795957
787,S.Antonio di M.-Rio V.Rastrel,,46.195343,10.795758
788,S.Antonio di M.-Palù,,46.197373,10.797107
789,S.Antonio di M.-Mumble Fratè,,46.200599,10.804013
790,Madonna di C.-Loc.Fontanella,,46.208856,10.820246
791,Madonna di C.-H. Lorenzetti,,46.214137,10.822365
792,Madonna di C.-Hotel Betulla,,46.220872,10.822457
793,Madonna di Campiglio-Vvff,,46.224540,10.825264
794,Madonna di C.-Laghetto,,46.226019,10.827868
795,M. Campiglio,,46.230343,10.827885
796,Madonna di C.-Fun. Pradalago,,46.234031,10.826079
797,Madonna di C.-Hotel Dahu,,46.234409,10.823829
798,M.Campiglio-P.Brenta Alta,,46.231942,10.826145
799,Madonna di C.-Biv. V.Nambino,,46.235465,10.826428
800,Funivia Grostè,,46.236312,10.835363
801,Campo Carlomagno,,46.242978,10.840032
803,Campo Carlomagno,,46.243225,10.840253
804,Funivia Grostè,,46.236409,10.835464
805,S.Massenza,,46.065484,10.980462
807,Madonna di C.-Loc.Fontanella,,46.208587,10.819861
808,S.Antonio di M.-Mumble Fratè,,46.200492,10.803664
811,S.Antonio di M.-Vigili Fuoco,,46.189857,10.784564
812,S.Antonio di M.-Biv.V.Nambr.,,46.188256,10.778149
813,S.Antonio di M.-Camping Faè,,46.185659,10.778454
814,Carisolo,,46.169099,10.763891
815,Pinzolo-Funivie,,46.163723,10.765273
816,Giustino-Hotel Royal,,46.153492,10.766254
818,Spiazzo Rend.-Conc.Cozzio,,46.110613,10.747633
819,Mortaso,,46.106772,10.739864
820,Spiazzo Rendena,,46.102588,10.736821
821,Borzago,,46.098884,10.734790
823,Vigo Rendena-Biv.Val S.Val.,,46.082368,10.722321
824,Vigo Rendena,,46.078901,10.719153
825,Darè,,46.075878,10.717528
826,Iavrè,,46.068841,10.711465
827,Verdesina Bivio,,46.056766,10.716638
829,Tione-Via Circonvallaz.,,46.040014,10.727518
830,Terlago,,46.097757,11.044740
831,Covelo Bivio,,46.098388,11.022717
832,Covelo-Via N.Poli,,46.096643,11.018074
833,Covelo,,46.098290,11.019005
834,Maso Ariol,,46.106105,11.026542
835,Monte Terlago-Bivio,,46.108167,11.035614
836,Monte Terlago-P.Zza,,46.109656,11.037895
837,Monte Terlago-Loc.Vallene,,46.109037,11.042854
838,Monte Terlago-H. 2 Laghi,,46.112079,11.046119
839,Cadine,,46.088855,11.064513
841,Trento-Maso Pedrotti,,46.076745,11.098135
842,Trento-Loc. S.Antonio,,46.069885,11.100439
843,Sardagna-Maso Scala,,46.069871,11.097749
844,Sardagna,,46.064848,11.097290
845,Sardagna-Tornante Sp 85,,46.071418,11.086984
847,Candriai-Bar Erika,,46.063071,11.082260
848,Centro A.Degasperi,,46.059629,11.077756
849,Vaneze-Bivio Prà Della Fava,,46.056968,11.076349
850,Bolbeno-Bivio,,46.034112,10.735532
853,Preore-Loc. Signor,,46.044911,10.752913
854,Ragoli,,46.050919,10.775286
855,Ragoli-Pez,,46.050940,10.780061
856,Zuclo Morace Antichità,,46.041992,10.753635
857,Saone,,46.042589,10.766915
858,Ponte Ragoli-Ss.237 Dir.Sarche,,46.050263,10.786769
859,Ponte Arche-Bel Sit,,46.036139,10.864628
861,Comano Terme,,46.041141,10.882865
863,Padergnone,,46.061989,10.989465
865,Vigolo Baselga-Ss45,,46.080844,11.043572
868,Tione-Bar Arno',,46.034257,10.733257
869,Sarche-Cassa Rurale,,46.046415,10.952067
870,Sarche-Centro Comm.,,46.046442,10.952107
871,Vaneze,,46.051918,11.071938
872,Vaneze-Sp.85,,46.051411,11.069391
873,Vaneze-Norge,,46.049242,11.066660
874,Vaneze-Baita Montesel,,46.045839,11.065184
875,Vaneze-Ex Snack Bar,,46.044388,11.060838
877,Viote,,46.021402,11.041172
878,Vason,,46.039098,11.057695
879,Vaneze-Baita Montesel,,46.046329,11.065049
880,Candriai,,46.066037,11.084466
884,Zuclo,,46.034160,10.747301
885,Bolbeno,,46.032567,10.737551
887,Coltura,,46.058271,10.793851
889,Preore Bivio Montagne,,46.046119,10.756556
890,Montagne-Cort,,46.050723,10.753627
891,Montagne-Larzana,,46.058445,10.751304
892,Montagne-Binio,,46.065609,10.755140
894,Zuclo,,46.034087,10.747095
895,Pinzolo,,46.157196,10.764400
896,Fraveggio Bivio,,46.078617,10.993865
897,Lon,,46.084191,10.992669
898,Ciago,,46.089243,11.004842
899,Margone Bivio,,46.068390,10.972999
900,Ranzo,,46.064110,10.942541
901,Margone,,46.068219,10.963864
903,Ciago-Sp. 18 Civ.1,,46.089161,11.008008
905,Margone Bivio,,46.068021,10.973815
906,Lon-Ris. Fior di Roccia,,46.084858,10.991606
909,Borgo V.-C.Intermodale,,46.052041,11.463335
910,Borgo Vals.-Ospedale,,46.056441,11.464242
911,Borgo Vals.-Valli,,46.055483,11.469823
912,Castelnuovo-Malerba,,46.053807,11.481145
913,Castelnuovo,,46.052197,11.494280
914,Strigno-Stazione Fs,,46.051474,11.514737
915,Agnedo-Incrocio,,46.051000,11.525010
916,Agnedo,,46.052516,11.528682
917,Agnedo-Via Per Ospedaletto,,46.048287,11.531302
918,Agnedo-Via Per Ospedaletto 8,,46.046836,11.542288
919,Ospedaletto,,46.044851,11.550784
920,Ospedaletto-Ss/F.S.,,46.041590,11.548690
921,Ospedaletto Loc. Barricata,,46.036355,11.561032
922,Ospedaletto-Via Pradenella,,46.033870,11.573069
923,Tollo,,46.028363,11.587738
924,Grigno,,46.015036,11.635237
925,Grigno-Segheria,,46.015219,11.636698
926,Palù di Grigno,,46.007300,11.654865
927,Serafini,,46.004039,11.660404
928,Belvederi di Grigno,,46.001081,11.665287
929,Tezze-Via Masetto Vecchio 16,,45.993791,11.670273
930,Tezze,,45.991214,11.671734
931,Martincelli,,45.977982,11.680805
932,Primolano-Alb.Giardino,,45.965203,11.707060
933,Ospedaletto,,46.044687,11.550965
934,Canezza-Bivio,,46.076785,11.275863
935,Canezza-Loc. Molini,,46.076818,11.282744
936,Canezza-Loc. Pinterhof,,46.078874,11.283443
937,Frassilongo-Maso Pizzi,,46.084010,11.290375
938,Frassilongo-Maso Molinari,,46.085004,11.291541
939,Levico Terme-Autostazione,,46.010161,11.298858
940,Levico T.-P.Za Medici,,46.008963,11.309513
941,Barco,,46.004584,11.335619
942,Levico T.-P.Za Medici,,46.008788,11.308239
943,Regnana Biv.-Dopo A.Costalta,,46.159984,11.300172
944,Regnana-Via Redebus 9,,46.156251,11.308984
945,Regnana,,46.154104,11.309902
946,Borgo Vals.-Sp.40,,46.051473,11.456467
947,Olle-Trattoria Alla Croce,,46.041590,11.460248
948,Olle-Via Del Boaletto,,46.040761,11.465108
949,Olle,,46.040808,11.464163
950,Pergine V.-Via Rosmini 19,,46.060945,11.232468
951,Costasavina,,46.058110,11.213982
952,Fornaci di Roncogno,,46.064069,11.224112
953,Roncogno,,46.069354,11.207320
954,Maso Colpi Bivio Via Tiglio,,45.997669,11.318198
955,Maso Colpi Bivio,,45.995463,11.319324
956,S.Giuliana-Civ.41,,45.993090,11.311893
957,S.Giuliana,,45.991575,11.315123
958,S.Mauro,,46.125272,11.223917
959,Valcava,,46.206286,11.311970
960,Svaldi,,46.170079,11.301642
961,Ponte Fersina,,46.069816,11.223412
962,Pergine V.-Viale Dante,,46.065908,11.228116
963,Masetti-Strada Provinciale,,46.052647,11.249267
965,Levico T.-Alb.Miralago,,46.016044,11.291759
966,Levico Terme-Cimitero,,46.008855,11.316263
967,Levico Terme-Sp.228,,46.016487,11.330915
968,Campiello di Levico,,46.019576,11.356679
969,Novaledo,,46.022213,11.366074
970,Novaledo-Via Roati,,46.027411,11.374066
971,Novaledo-Loc.Campregher,,46.029340,11.382792
972,Marter-Loc.Angeli,,46.030565,11.388362
973,Marter-Autoespresso,,46.034103,11.394317
974,Roncegno-Via Ciocca,,46.044667,11.406879
975,Roncegno Terme,,46.049671,11.411174
976,Roncegno-Centro Polisportivo,,46.049008,11.421467
977,Borgo Vals.-Staz. Fs,,46.051441,11.454415
978,Scurelle,,46.065058,11.506674
979,Scurelle-Via 15 Agosto,,46.062960,11.514492
980,Villa,,46.057745,11.519774
981,Strigno-Bivio Ivano Fracena,,46.061558,11.523764
983,Tomaselli,,46.069104,11.528309
984,Tomaselli-Bivio Latini,,46.071154,11.536719
985,Bieno-Via Bettega,,46.075320,11.540816
986,Bieno-Via Lusumina,,46.084130,11.550569
987,Bieno,,46.080268,11.553834
988,Bieno-Via Roma,,46.081287,11.558990
989,Pradellano,,46.079566,11.577673
990,Pradellano-Al Lago,,46.076086,11.588456
991,Pieve Tesino-Passo Forcella,,46.070956,11.592248
992,Pieve Tesino-Case Itea,,46.068561,11.605522
993,Cinte Tesino Bivio,,46.066533,11.607625
994,Cinte Tesino-Stab.Bailo,,46.063234,11.609771
996,Cinte Tesino,,46.057645,11.613706
998,Pieve Tesino,,46.067684,11.612774
999,Castello T.-Loc. Al Ponte,,46.070757,11.622036
1000,Castello T.-Ip,,46.068606,11.625943
1001,Castello T.-Via Battisti 36,,46.064407,11.628872
1002,Castello Tesino,,46.064873,11.633294
1003,Pergine V.-Bivio Susà,,46.056775,11.236747
1005,S.Cristoforo Al Lago,,46.038778,11.233503
1006,Valcanover,,46.026716,11.229254
1007,Valcanover-Pizz.Happy Days,,46.016696,11.233983
1008,Calceranica-Bar Floris,,46.006556,11.241153
1010,Caldonazzo-Via Marconi,,45.994597,11.256980
1011,Caldonazzo,,45.993374,11.260641
1012,Caldonazzo-Via Roma,,45.994526,11.270753
1013,Caldonazzo-Sp. Civ.85/B,,45.998136,11.279595
1014,Levico T.-Rist. Brenta,,46.006387,11.291849
1015,Levico T.-Rist.Brenta,,46.006543,11.291893
1016,Caldonazzo,,45.993610,11.260696
1017,Caldonazzo-V.Marconi,,45.995308,11.256569
1018,Calceranica Al Lago,,46.004091,11.243365
1019,Valcanover,,46.027390,11.229319
1020,S.Cristoforo Al Lago,,46.038968,11.233977
1021,Pergine V.-Via Al Lago Civ 17,,46.053382,11.235382
1022,S.Cristoforo-Bivio Darsena,,46.039889,11.239810
1023,Ischia-Alle Terrazze,,46.012667,11.261720
1024,Brenta Bivio,,46.004789,11.274534
1025,Brenta Bivio,,46.005569,11.272279
1026,Ischia-Alle Terrazze,,46.014088,11.260421
1028,Pergine V.,,46.061538,11.237586
1029,Roveda Bivio,,46.086443,11.293810
1030,Frassilongo,,46.089502,11.297433
1031,Frassilongo-Maso Doss Hecchi,,46.092488,11.302722
1032,Frassilongo-Maso Puech,,46.094064,11.304207
1033,Fierozzo-Loc. Gaigheri,,46.096613,11.311683
1034,S.Francesco,,46.100363,11.310541
1035,S.Felice Fierozzo,,46.111159,11.318516
1037,Pergine V.-Via Regensburger,,46.064432,11.242028
1038,Pergine V.-V.Regensb/Bellini,,46.067887,11.239690
1039,Casalino-Stadio Del Ghiaccio,,46.072183,11.235642
1040,Casalino,,46.074271,11.229227
1041,Vigalzano,,46.076931,11.228473
1042,Vigalzano-Via Del Sgualdi,,46.079790,11.226832
1043,Canzolino-Via Pianezze,,46.081871,11.222569
1044,Canzolino-Scuole,,46.083822,11.219086
1046,Madrano-Alb.Madrano,,46.085656,11.215136
1048,S.Martino di Castrozza,,46.262152,11.804287
1049,S.Martino di C.-H.Cristallo,,46.258679,11.802423
1050,Impianti Tognola,,46.254704,11.800066
1051,Valmesta,,46.227085,11.808750
1052,Siror-Birr.Val Serena,,46.189864,11.825319
1053,Siror,,46.187088,11.830580
1054,Tressane,,46.179307,11.832565
1055,Ponte Mirabello,,46.177663,11.831366
1056,Fiera di Primiero,,46.174311,11.828603
1057,Fiera di P.-Sup.Trentini,,46.171606,11.824472
1058,Sorive,,46.160368,11.819909
1059,Mezzano-Albergo Salgetti,,46.156242,11.814595
1060,Mezzano,,46.154591,11.805976
1061,Imer--Sup. Schlecker,,46.151919,11.800797
1062,Imer,,46.151018,11.796068
1063,Masi di Imer,,46.145284,11.785768
1064,S.Silvestro,,46.131439,11.769023
1065,Pontet,,46.106741,11.774054
1066,Port,,46.092965,11.761661
1067,Val Rosna,,46.084136,11.764421
1068,Moline,,46.066332,11.763506
1069,Ponte Oltra,,46.060534,11.763205
1070,Fontane di Lamon,,46.036416,11.761574
1071,Ponte Serra,,46.029632,11.762566
1072,Fonzaso-Pedesalto,,46.021116,11.781461
1073,Fonzaso,,46.016660,11.802563
1074,Arten,,46.008258,11.831188
1076,Feltre-Gel. La Zuecca,,46.019048,11.893374
1077,Feltre-Rist.Sole di Napoli,,46.021457,11.904487
1078,Feltre-Ospedale,,46.021853,11.908009
1079,Feltre-Staz. Fs,,46.012749,11.910851
1080,Feltre-Staz. Fs,,46.012491,11.910304
1081,S.Lucia,,46.003297,11.840661
1082,Arten,,46.008708,11.831534
1083,Ponte Oltra,,46.060441,11.762556
1084,Moline,,46.066056,11.763738
1085,Masi di Imer,,46.145367,11.786083
1086,Masi di Imer-Str.Dismessa,,46.145815,11.786131
1087,Imer,,46.150561,11.794517
1088,Mezzano,,46.154450,11.806214
1089,Mezzano-Alb.Salgetti,,46.156398,11.815198
1090,Siror,,46.186854,11.830376
1091,Impianti Tognola,,46.254564,11.800643
1092,S.Martino di C.-H.Cristallo,,46.258584,11.802600
1093,Canal S.Bovo,,46.154983,11.733015
1094,Canal S.Bovo-Somprà,,46.159542,11.727580
1095,Pianazzi Bivio,,46.162501,11.722351
1096,Ronco Fosse,,46.153340,11.719645
1097,Ronco-Bivio Pugnai,,46.149553,11.719951
1098,Ronco-Bivio Gasperoi,,46.141878,11.717190
1099,Ronco Chiesa,,46.141561,11.714637
1100,Povo-Mesiano,,46.067597,11.144135
1102,Caldonazzo-Staz. Fs,,45.997136,11.264702
1103,Levico Terme-Staz. Fs,,46.005879,11.305009
1104,Grigno-Staz. Fs,,46.015362,11.624995
1105,Tezze-Staz. Fs,,46.055537,11.616157
1106,Primolano-Staz. Fs,,45.965663,11.701313
1107,Susa',,46.051111,11.223539
1108,Trento-C.So Tre Novembre,,46.062416,11.123713
1109,Trento-Viale Verona,,46.056531,11.128456
1110,Trento-Distretto,,46.052748,11.129803
1111,Trento Viale Verona Big Center,,46.045090,11.130933
1112,Trento-Man,,46.036737,11.130338
1113,Mattarello-Loc.Ronchi,,46.017259,11.132495
1114,Mattarello,,46.005283,11.126502
1115,Acquaviva,,45.989952,11.122780
1116,Acquaviva-Pizzeria,,45.980673,11.116452
1117,Besenello-Ferm. Nord,,45.945968,11.106163
1118,Besenello,,45.942137,11.109389
1119,Besenello-Ferm. Sud,,45.936943,11.110420
1120,Calliano,,45.934198,11.095733
1121,Calliano-Grafiche Manfrini,,45.928835,11.093172
1122,Castelpietra,,45.922967,11.092189
1123,Volano,,45.917920,11.063780
1124,S.Ilario,,45.908274,11.040552
1125,Rovereto-V.Le Trento,,45.900157,11.041998
1126,Rovereto-Via Manzoni,,45.892473,11.038426
1127,Rovereto-Staz.F.S.,,45.890326,11.033849
1128,Rovereto-Difr.Rist.Cristina,,45.884107,11.032630
1129,Lizzanella,,45.874533,11.031686
1130,Lizzanella-Bar Verona,,45.872773,11.024339
1131,Centro Commerciale Millenium,,45.868790,11.014188
1132,Mori-Stazione F.S.,,45.861908,11.000683
1133,Ravazzone di Mori,,45.860092,10.991291
1134,Molina di Mori,,45.855210,10.985631
1135,Mori-Bar Centrale,,45.851605,10.978781
1136,Mori-Bivio Sud,,45.853367,10.967981
1137,Mori-Difr.Discoteca Fanum,,45.855035,10.946812
1138,Loppio,,45.855726,10.929794
1139,Passo S.Giovanni,,45.874042,10.906461
1140,Nago,,45.878476,10.890669
1141,Torbole,,45.870887,10.875764
1142,Linfano Bivio,,45.875583,10.871503
1143,Riva V.Rovereto H.Brione,,45.880111,10.856036
1144,Riva V.Rovereto H.Du Lac,,45.883055,10.852641
1145,Riva Via D.Chiesa,,45.888706,10.846075
1146,Riva Del G.-Autostaz.,,45.892289,10.844892
1147,Riva D/Garda Rione Degasperi,,45.895383,10.850061
1148,Riva Del G. C.Comm. 2000,,45.896469,10.851309
1149,Riva Del G. S.Nazzaro,,45.899783,10.855660
1150,S.Tomaso-Direz. Arco,,45.902286,10.860011
1151,Arco S.Caterina Eurospar,,45.904792,10.864220
1152,Arco Bivio Sp 36 Grazie,,45.906486,10.866327
1153,Arco Via S.Caterina,,45.912254,10.875211
1154,Arco-Autostaz.,,45.916113,10.883001
1155,Arco Piazza Italia,,45.919566,10.891333
1156,Caneve,,45.916735,10.892204
1157,Bolognano Bivio,,45.910903,10.900309
1158,Bolognano,,45.912063,10.901986
1159,Bolognano Via Asilo,,45.914058,10.902196
1160,Massone Case Itea,,45.921813,10.899108
1161,Massone,,45.924014,10.898306
1162,S.Martino di Arco,,45.924460,10.894775
1163,Arco Svizzera,,45.921461,10.891616
1164,Arco Bivio Sp 36 Grazie,,45.906976,10.867143
1165,Arco S.Caterina Eurospar,,45.904663,10.863891
1166,S.Tomaso-Direz. Riva,,45.902908,10.861114
1167,Riva Del G. S.Nazzaro,,45.899091,10.854464
1168,Riva Del G. C.Comm. 2000,,45.897765,10.852435
1169,Riva D/Garda Rione Degasperi,,45.894834,10.849462
1170,Riva D/Garda Viale Martiri,,45.887604,10.844054
1171,Nago,,45.878302,10.890542
1172,Loppio,,45.855490,10.930108
1173,Mori-Bar Centrale,,45.851608,10.978989
1174,Molina di Mori,,45.855097,10.985453
1175,Ravazzone di Mori,,45.858717,10.990649
1177,Lizzanella-Bar Verona,,45.872694,11.024273
1178,Lizzanella,,45.874361,11.031758
1179,Rovereto-Rist.Cristina,,45.883028,11.032565
1180,Rovereto-Staz.F.S.,,45.890243,11.034030
1181,Rovereto-V.Le Trento,,45.900353,11.042123
1182,S.Ilario,,45.908367,11.040784
1183,Volano,,45.917749,11.063577
1184,Calliano,,45.934013,11.096002
1185,Besenello,,45.941793,11.109991
1186,Besenello-Ferm. Nord,,45.946015,11.106023
1187,Mattarello,,46.005251,11.126637
1188,Trento-Man,,46.037835,11.130486
1189,Trento-Ponte Cavaleggeri,,46.059353,11.126297
1190,Trento-Via Rosmini,,46.068218,11.118796
1191,Tonadico-Lisiera,,46.181183,11.841123
1192,Tonadico-Centr.Castelpietra,,46.184630,11.845447
1193,Bivio Val Canali,,46.189613,11.861092
1194,Baita Del Vecio,,46.185473,11.873973
1195,Passo Cereda,,46.192986,11.905223
1196,Mis,,46.207137,11.927153
1197,Mis di Mezzo,,46.205713,11.928996
1198,Mis di Sotto,,46.203515,11.930098
1199,Sagron,,46.195002,11.943357
1200,Bellamonte-Albergo Zaluna,,46.314589,11.647139
1201,Bellamonte,,46.312911,11.662986
1202,Bellamonte-H.Torretta,,46.311058,11.674500
1203,Lago Forte Buso,,46.306909,11.701286
1205,Paneveggio Centro Forestale,,46.309541,11.748096
1206,Bivio Malga Juribello,,46.300119,11.763517
1207,"Malga Rolle",,46.295816,11.776544
1208,Passo Rolle,,46.296305,11.787139
1209,P.Sso Rolle-Segg. Segantini,,46.297907,11.788999
1210,P.Sso Rolle-Malga Fosse,,46.289455,11.798580
1211,S.Martino di C.-H. S.Martino,,46.266379,11.802413
1212,S.Martino di C.-Im.Col Verde,,46.264917,11.804217
1213,S.Martino di C.-H.Belvedere,,46.264314,11.801833
1218,Paneveggio,,46.306657,11.739067
1224,Caoria-Bar Cauriol,,46.194858,11.680894
1225,Caoria-Ponte Valsorda,,46.197164,11.678894
1226,Caoria,,46.198012,11.675734
1227,Lausen,,46.149954,11.734824
1229,Bivio Prade,,46.151486,11.741642
1230,Berni,,46.156637,11.745893
1231,Prade,,46.157314,11.740539
1232,Cicona,,46.162906,11.744184
1233,Zortea,,46.162717,11.750159
1234,Zortea-Loc. Mureri,,46.164872,11.757456
1235,Barbine,,46.157837,11.754333
1236,P.Sso Gobbera-F.Mazuca,,46.150300,11.751120
1237,Passo Gobbera,,46.147663,11.758202
1238,Passo Gobbera,,46.147632,11.757656
1239,Canal S.Bovo,,46.154704,11.733040
1240,Caoria-Ponte Valsorda,,46.197181,11.678532
1242,Cavalese-Hotel Coronelle,,46.294815,11.454263
1243,Daiano-Parco Giochi,,46.300106,11.450123
1244,Daiano,,46.300879,11.447872
1245,Varena-Pizz. La Cantinetta,,46.302821,11.454024
1246,Varena Centro-Alb. Alpino,,46.303567,11.456161
1247,Varena,,46.305514,11.458118
1248,Trento-Via Valsugana,,46.069120,11.136319
1249,Cirè-Ex Statale,,46.077164,11.207011
1250,Roveda-Maso Puech Pote,,46.074384,11.287907
1251,Roveda-Maso Sroveri,,46.069344,11.292393
1252,Roveda,,46.067989,11.298912
1253,Roveda-Maso Tolleri,,46.069281,11.299101
1254,Roveda-Maso Martinotti,,46.071815,11.304078
1255,Roveda-Maso Stiopetteri C.,,46.071543,11.298769
1256,Kamauz-Maso Frunt,,46.072812,11.301187
1257,Kamauz,,46.074718,11.302164
1258,Canezza-Rist. Al Sole,,46.080110,11.275681
1259,Borgo Vals.-Case Itea,,46.058762,11.469263
1260,Telve,,46.070437,11.477965
1261,Telve-Panorama,,46.070379,11.483099
1262,Telve-Via S.Giustina,,46.072891,11.484734
1264,Telve-Salti,,46.073963,11.480759
1265,Ponte S.Giovanni,,46.075054,11.474240
1266,Telve di Sopra,,46.072006,11.472214
1267,Campestrini,,46.077688,11.456859
1268,Torcegno-Segheria,,46.074770,11.451065
1269,Torcegno,,46.073038,11.450420
1270,Ronchi Valsugana,,46.072599,11.438554
1271,Ronchi-Loc. Marchi,,46.066813,11.432584
1272,Stauda,,46.063774,11.429672
1273,Montebello,,46.061208,11.425914
1274,Maso Roneri,,46.059241,11.420822
1275,Rincheri,,46.056603,11.416641
1277,Cinte Tesino Bivio,,46.067453,11.607539
1457,Ora-Auer,,46.348173,11.297324
1458,Maso Del Gobbo,,46.033816,10.947743
1459,Pietramurata,,46.017091,10.942043
1460,Isoletta,,46.009174,10.935767
1461,Marocche-Pescicoltura,,46.002236,10.926660
1462,Marocche,,45.998564,10.925295
1463,Gaggiolo,,45.993660,10.926532
1464,Centrale Fies,,45.986449,10.926882
1465,Dro-Al Lago,,45.982597,10.925059
1466,Dro Itea,,45.962453,10.915978
1467,Dro,,45.961474,10.910726
1468,Dro-Carabinieri,,45.958516,10.906523
1469,Ceniga,,45.951387,10.900851
1470,Ceniga Bivio Sud,,45.946609,10.902954
1471,Arco Moletta,,45.931025,10.896185
1472,Roncegno Chiesa,,46.049712,11.406684
1474,S.Martino di Arco,,45.923731,10.893138
1475,Daiano-Via Arca I,,46.300319,11.445211
1476,Daiano-Via Arca Civ.20,,46.298112,11.444162
1477,Carano,,46.292416,11.437238
1478,Masi-Az. Agricola,,46.281916,11.496317
1479,Lago di Tesero,,46.281974,11.515006
1480,Lago-Mobilif. De Pal,,46.283985,11.521973
1481,Tesero Bivio,,46.285506,11.523799
1482,Daino,,46.023309,10.943759
1483,Baselga di Pinè-Monum.,,46.130951,11.246447
1484,Miola,,46.126782,11.246524
1485,Miola-St. Ghiaccio,,46.125424,11.253586
1486,Faida-Rauta,,46.112841,11.253843
1487,Faida,,46.109689,11.251616
1490,Cavalese-Autostaz.,,46.287912,11.463237
1492,Canzolino,,46.083701,11.221506
1493,Canzolino-Hotel Miralago,,46.082622,11.230442
1494,Canzolino-Bivio Buss,,46.084555,11.230766
1495,Riposo,,46.084493,11.236938
1496,Montagnaga,,46.098614,11.236071
1497,Valt,,46.106817,11.236568
1498,Ferrari-Hotel Scoiattolo,,46.111813,11.234198
1499,Ferrari,,46.121678,11.239945
1501,Miola-Bivio Ferrari/Miola,,46.124923,11.243146
1502,Mazzanigo,,46.103797,11.188919
1503,S.Agnese,,46.106121,11.183918
1507,Campo Lomaso,,46.024031,10.865607
1508,Campo Lomaso Ii,,46.021898,10.866744
1509,Vigo Lomaso,,46.013210,10.869079
1510,Dasindo,,46.011844,10.860407
1511,Stumiaga,,46.007007,10.849006
1512,Fiavè-Caseificio,,46.001943,10.846004
1514,Fiavè-Bar Aurora,,46.001174,10.840937
1515,Torbiera,,45.992446,10.838008
1516,Fiavè Pineta,,45.988124,10.833076
1517,Ballino,,45.965503,10.811513
1518,Lago di Tenno,,45.935073,10.812050
1519,Ville Del Monte,,45.930259,10.822412
1520,Ville Del Monte I,,45.927399,10.825673
1521,Tenno,,45.921139,10.831297
1522,Tenno-Rist. Alla Croce,,45.918081,10.832840
1523,Cologna-Alb.Panorama,,45.915367,10.847093
1524,Cologna,,45.914858,10.842365
1525,Cologna-Belvedere,,45.913960,10.841415
1526,Gavazzo,,45.912491,10.840954
1528,Gardolo-Zona Ind.Le,,46.105316,11.100608
1530,Trento-Ospedale S.Chiara,,46.058154,11.132919
1531,Trento-Osp. S.Chiara,,46.058154,11.131198
1532,Trento-Ospedale S.Camillo,,46.065482,11.131826
1534,Trento-P.Zza Venezia,,46.067676,11.126902
1535,Trento-Via Barbacovi,,46.064481,11.129758
1536,Trento-Via M.Baldo,,46.057536,11.117437
1538,Varone Alberello,,45.907214,10.840333
1539,Varone Via Ballino 14,,45.904369,10.842057
1540,Varone-Sc.Alberghiera,,45.901560,10.844310
1541,Albola,,45.897666,10.844129
1542,Riva D/Garda V.Le Dei Tigli 21,,45.892365,10.842948
1545,Varone Cascata,,45.911926,10.837202
1546,Cologna-Alb.Panorama,,45.915416,10.847131
1547,Ballino,,45.965776,10.811609
1548,Torbiera,,45.992714,10.838523
1549,Fiavè-Bar Aurora,,46.001313,10.841014
1550,Fiave',,46.004365,10.842042
1551,Fiavè-Caseificio,,46.002206,10.845756
1552,Stumiaga,,46.007379,10.849193
1554,Vigo Lomaso,,46.013241,10.869090
1555,Campo Lomaso Ii,,46.021557,10.866822
1556,Campo Lomaso,,46.023680,10.865724
1558,Cares,,46.032891,10.863776
1559,Comighello,,46.030953,10.851467
1560,Sesto Bivio,,46.031422,10.846947
1562,Villa di Bleggio,,46.029307,10.841954
1563,Santa Croce,,46.024471,10.838769
1564,Madice,,46.023864,10.832003
1565,Marcè Bivio,,46.019261,10.823814
1566,Cavrasto,,46.017078,10.819855
1567,Balbido,,46.014205,10.811819
1568,Rango,,46.018187,10.811832
1569,Cavaione,,46.022570,10.819804
1570,Marazzone,,46.026893,10.820735
1571,Larido,,46.028690,10.823714
1572,Bivedo,,46.028738,10.826650
1574,Polin,,46.026824,10.720090
1575,Breguzzo-Loc. Petò,,46.018713,10.711183
1576,Breguzzo-Corè,,46.015355,10.707604
1577,Breguzzo,,46.009294,10.699435
1578,Breguzzo-Hotel Carlone,,46.006364,10.697937
1579,Bondo,,46.000242,10.692876
1580,Pra' di Bondo,,45.996292,10.690680
1581,Prà di Bondo-Falegnameria,,45.990894,10.685662
1582,Roncone,,45.983562,10.670695
1583,Fontanedo,,45.979182,10.666827
1584,Lardaro,,45.969381,10.660893
1585,Forti di Lardaro,,45.962753,10.658039
1586,Strada,,45.944284,10.642772
1587,Pieve di Bono-Loc. Creto,,45.939249,10.638650
1588,Agrone,,45.954529,10.650079
1589,Pieve di Bono-Tratt.Borel,,45.935769,10.639060
1592,Cologna di P.Bono,,45.931355,10.637450
1593,Cimego-Centrale Enel,,45.924618,10.632708
1594,Ponte Cimego,,45.915356,10.621384
1595,Cimego,,45.911927,10.614400
1596,Cimego-Loc.Quartinago,,45.910622,10.611835
1597,Cimego-Bar Porte,,45.904469,10.608408
1598,Condino-Alb.Condino,,45.891406,10.601560
1599,Condino,,45.889021,10.599610
1600,Condino-Case Itea,,45.884992,10.596494
1601,Condino-Cartiere,,45.880389,10.592588
1602,Condino-Carpenteria,,45.874623,10.588411
1605,Storo,,45.848809,10.578087
1606,Storo-Al Melograno,,45.850216,10.575210
1608,Casa Rossa,,45.852440,10.565998
1609,Darzo-Stork Club,,45.849192,10.559670
1610,Darzo,,45.841258,10.549742
1611,Darzo-Zona Ind.Le,,45.834353,10.542857
1612,Lodrone,,45.829192,10.535456
1613,Ponte Caffaro Bivio,,45.825079,10.531114
1614,Ponte Caffaro-Mobilif.,,45.820924,10.539249
1615,Ponte Caffaro-Pescicoltura,,45.817692,10.544283
1616,Baitoni-Via Lago,,45.810328,10.543379
1617,Baitoni,,45.808723,10.539588
1618,Tione-Hotel Milano,,46.029118,10.723754
1619,Polin,,46.026806,10.720064
1620,Breguzzo,,46.009868,10.700202
1622,Bondo,,46.000001,10.692832
1623,Prà di Bondo,,45.996469,10.690919
1624,Roncone,,45.984559,10.672081
1625,Fontanedo,,45.978898,10.666773
1626,Lardaro,,45.969770,10.661090
1627,Forti di Lardaro,,45.963004,10.658392
1628,Agrone,,45.955368,10.650607
1629,Strada,,45.944013,10.642640
1630,Pieve di Bono-Tratt.Borel,,45.935706,10.639071
1631,Cologna di P.Bono,,45.931273,10.637534
1632,Condino-Alb.Condino,,45.891388,10.601534
1633,Condino-Albergo Corona.,,45.888994,10.599609
1634,Condino-Case Itea,,45.885120,10.596701
1635,Condino-Cartiere,,45.880370,10.592622
1637,Storo,,45.848889,10.578160
1638,Darzo,,45.842292,10.550493
1639,Darzo-Zona Ind.Le,,45.834080,10.542728
1640,Lodrone,,45.829324,10.535700
1641,Ponte Caffaro-Mobilif.,,45.821142,10.538882
1643,Poia,,46.028668,10.880072
1645,Comano,,46.034769,10.891022
1646,Godenzo,,46.028860,10.883158
1647,Poia,,46.028479,10.880067
1648,Lundo,,46.012779,10.884054
1649,Villa Banale,,46.046407,10.887193
1650,Premione-Via di Pestelan,,46.047643,10.880493
1651,Premione,,46.048273,10.874201
1652,Stenico-Scuola,,46.049860,10.856623
1653,Stenico,,46.051971,10.853879
1655,Stenico-Dologno,,46.053473,10.873476
1656,Dos Doa,,46.054273,10.897553
1657,Seo,,46.057110,10.872923
1658,Sclemo-Via Dei Caputel,,46.053790,10.879404
1659,Sclemo,,46.055964,10.884041
1660,Tavodo,,46.066323,10.892204
1661,Tavodo-S.Provinciale,,46.064889,10.892129
1662,Dorsino,,46.073366,10.896859
1663,S.Lorenzo In Banale,,46.076504,10.907305
1664,S.Lorenzo-Chiesa,,46.076672,10.909368
1665,Lago Nembia,,46.096096,10.932585
1666,Lago Nembia-Casa Enel,,46.107358,10.943027
1669,Molveno-Centro,,46.142420,10.963759
1670,Molveno-Lido Lago,,46.140743,10.962853
1671,Molveno-Hotel Du Lac,,46.141236,10.965607
1672,Molveno-Grand Hotel,,46.134919,10.970224
1673,Lago Nembia,,46.095952,10.933324
1674,S.Lorenzo In Banale,,46.076385,10.907682
1675,Tavodo-Incr.S.P.,,46.064760,10.892034
1676,Sclemo,,46.055896,10.884206
1679,Dos Doa,,46.054075,10.897270
1680,Stenico-Dologno,,46.053480,10.873597
1681,Stenico-Case Nuove,,46.052309,10.861002
1682,Stenico,,46.051868,10.853805
1683,Premione,,46.048262,10.874064
1688,Castel Condino,,45.916322,10.602714
1689,Bersone,,45.944017,10.633506
1690,Praso,,45.949536,10.637414
1691,Daone,,45.947374,10.621184
1692,Castelnuovo-Zanzibar,,46.060200,11.490312
1693,Carzano,,46.069839,11.493617
1695,Scurelle-Strettoia-Cartiera,,46.069067,11.498190
1696,Strigno-Loc.Colle,,46.067461,11.516074
1697,Spera,,46.070410,11.508857
1698,Strigno-Loc. Colle,,46.067492,11.515873
1699,Samone,,46.081220,11.521945
1700,Riva Del G.-Bivio Val Ledro,,45.894756,10.842615
1701,Pregasina Bivio,,45.864433,10.812754
1702,Pregasina,,45.851215,10.824947
1703,Biacesa,,45.865050,10.805388
1704,Prè,,45.866333,10.788169
1705,Barcesino,,45.870893,10.781512
1706,Molina di Ledro,,45.871762,10.772216
1707,Molina di Ledro-Lago,,45.873683,10.766712
1708,Mezzolago,,45.881040,10.750447
1709,Pieve di Ledro,,45.889293,10.730664
1710,Bezzecca-Vigili Del Fuoco,,45.893204,10.723837
1711,Bezzecca-Scuole,,45.894714,10.720104
1712,Locca,,45.900381,10.725642
1713,Enguiso,,45.905795,10.729220
1714,Lenzumo,,45.912386,10.726404
1715,Lenzumo-Bar Taverna,,45.913165,10.728461
1716,Enguiso,,45.906001,10.729023
1717,Locca,,45.900374,10.725557
1719,Tiarno di Sotto-Bivio,,45.893015,10.705842
1721,Tiarno di Sotto,,45.893420,10.686731
1722,Tiarno di Sotto-Garage,,45.892870,10.680696
1723,Tiarno di Sopra-Cooperativa,,45.891308,10.674937
1724,Tiarno di Sopra,,45.889966,10.671907
1726,Ampola Agritur,,45.875782,10.658552
1727,Tremalzo Bivio,,45.864065,10.645069
1728,Storo Strada V.Di Ledro Civ.7,,45.846513,10.582364
1729,Tiarno di Sopra-Mariani,,45.882813,10.666215
1730,Tiarno di Sopra,,45.889993,10.671907
1731,Mezzolago,,45.880746,10.750805
1732,Molina di Ledro-Lago,,45.873879,10.766535
1733,Molina di Ledro,,45.871873,10.771779
1734,Barcesino,,45.871072,10.779830
1735,Biacesa,,45.864939,10.804951
1737,Padergnone Bivio,,46.060261,10.992518
1738,Calavino,,46.045571,10.982813
1739,Calavino-Via Battisti,,46.041420,10.982354
1740,Madruzzo Bivio,,46.033912,10.981413
1741,Lasino-Pizzeria 4 Stagioni,,46.024861,10.981219
1742,Lasino-Piazza,,46.023488,10.983349
1743,Stravino-Loc.Berlonga,,46.007748,10.981171
1744,Stravino,,46.003193,10.980432
1745,Cavedine-Telsar S.P.A.,,45.997601,10.977441
1746,Cavedine,,45.993519,10.974624
1747,Brusino,,45.985835,10.975991
1748,Cavedine-Loc.Mai,,45.984137,10.977893
1750,Vigo Cavedine,,45.978967,10.981220
1752,Vigo Cavedine Bivio,,45.978092,10.977703
1753,Masi di Vigo Cavedine-Bivio,,45.973406,10.974385
1754,Luch,,45.965820,10.962328
1755,Drena,,45.971089,10.944498
1756,Lavini di Dro,,45.972773,10.934374
1757,Centrale di Drena,,45.967117,10.928191
1758,Arco Via Capitelli,,45.919119,10.880279
1759,Arco Ospedale,,45.918802,10.876025
1760,Chiarano,,45.918883,10.869412
1761,Vigne,,45.919724,10.865352
1762,Varignano,,45.918308,10.861655
1764,Ceole,,45.913916,10.857782
1765,Pasina Bivio,,45.905638,10.851485
1766,Arco Ospedale,,45.918839,10.875975
1770,Mattarello-Ss 12,,46.010331,11.128951
1771,Romagnano-Sp 131 Km 2,,46.009349,11.119329
1772,Romagnano-Sp131 Km 1,,46.012418,11.106722
1773,Romagnano-Cava Lonardi,,46.007832,11.107920
1774,Romagnano-Sp 90 Km 20,,46.002046,11.104938
1775,Aldeno-Maso Toricella,,45.991309,11.097816
1776,Aldeno-Cimitero,,45.982519,11.092483
1777,Aldeno,,45.976958,11.091825
1779,Trento-Via S.Severino Dif. 127,,46.051021,11.111590
1780,Ravina-Via Del Ponte,,46.043359,11.112299
1781,Ravina Bivio,,46.037617,11.114124
1782,Romagnano Bivio,,46.014855,11.106841
1783,Aldeno-Loc. Dossi,,45.973211,11.085161
1784,Aldeno-Loc. Ciausa,,45.975689,11.083537
1785,S. Giorgio di Cimone,,45.975507,11.079658
1786,Covelo di Cimone,,45.979308,11.070638
1787,Covelo-Fam Cooperativa,,45.978460,11.067762
1788,Cimone-Loc. Battistoni,,45.977954,11.064839
1789,Cimone,,45.978318,11.066142
1790,Cimone-Fraz. Pietra,,45.981118,11.068558
1791,Cimoneri,,45.984459,11.072224
1792,Gazi,,45.983589,11.075235
1793,Garniga Terme-Loc. Zobbio,,45.990055,11.083483
1794,Garniga Terme,,46.001406,11.085872
1795,Garniga-Piazza Lago,,46.004809,11.085840
1796,Garniga Vecchia-Case di Sotto,,46.012362,11.078792
1798,Garniga Vecchia,,46.013523,11.083563
1799,Romagnano Bivio,,46.016038,11.107805
1800,Ravina Bivio,,46.037512,11.114096
1801,Trento-Tangenziale,,46.047755,11.113459
1803,Serso,,46.074833,11.253093
1804,Viarago-Via Delle Miniere,,46.082000,11.268852
1806,Viarago,,46.079811,11.262169
1807,Trento-V. S.Francesco,,46.067015,11.126396
1808,Trento-Piazza Vicenza,,46.062177,11.132905
1809,Cernidor,,46.047892,11.137543
1810,S.Rocco,,46.035958,11.145676
1811,S.Rocco-Maso,,46.026299,11.145982
1812,Pianizza,,46.016816,11.145076
1813,Valsorda,,46.007836,11.156884
1814,Valsorda "Loc. Brusafer",,46.006314,11.163593
1815,V.Vattaro Loc.Ca' De Ronc,,46.006518,11.170408
1816,V.Vattaro-Difr.Civ.10B,,46.005903,11.190843
1817,Vigolo Vattaro,,46.003942,11.195919
1818,Bosentino-Loc.Mandola,,46.000565,11.216062
1819,Bosentino,,46.001470,11.223215
1821,V.Vattaro-Stab.Chindet,,45.999034,11.205424
1822,Vattaro,,45.992588,11.218985
1823,Vattaro-Civ.80,,45.990023,11.218973
1824,Campregheri Bivio,,45.984608,11.232636
1825,Pian Dei Pradi,,45.979043,11.237369
1826,Centa,,45.969510,11.232842
1827,Centa Bivio,,45.967431,11.226834
1828,Centa-Bivio M.Cioli,,45.963371,11.220885
1829,Menegoi,,45.952789,11.214272
1830,Fricca,,45.949416,11.209041
1831,Carbonare,,45.934439,11.226634
1832,Nosellari-Alb. Al Bivio,,45.931381,11.244896
1833,Nosellari,,45.929510,11.249886
1834,Dazio,,45.928454,11.256435
1835,Pra di Sopra,,45.930931,11.250611
1836,Lago di Lavarone,,45.933981,11.255937
1837,Lavarone-Hotel Du Lac,,45.937766,11.255226
1838,Lavarone Chiesa,,45.941014,11.251668
1839,Lanzino,,45.947305,11.250762
1840,Stengheli,,45.949561,11.258659
1841,Bertoldi,,45.950404,11.263150
1842,Azzolini,,45.942711,11.265038
1843,Gionghi,,45.940720,11.269666
1844,Lavarone Cappella,,45.936708,11.275436
1845,Gasperi,,45.940596,11.276807
1846,Casanova,,45.941232,11.279663
1847,Masetti Bivio,,45.954257,11.294440
1848,Monterovere,,45.960661,11.297383
1849,Luserna-Sp.9,,45.924891,11.317933
1850,Luserna,,45.921652,11.324253
1851,Nosellari,,45.929641,11.249472
1852,Nosellari-Alb. Al Bivio,,45.931477,11.244823
1853,Trento-Via Milano,,46.060801,11.127564
1854,Maso Uez,,45.972959,11.233215
1856,S.Cristoforo-Ht.Meridiana,,46.039518,11.242431
1857,Ischia di Pergine,,46.033155,11.247724
1858,Alberè-Maso Roveri,,46.031807,11.251223
1859,Alberè di Tenna,,46.029541,11.255653
1860,Tenna-Bivio Pontara Serafini,,46.023291,11.261980
1861,Tenna-Sp 16 Al Km 4,,46.017113,11.266271
1863,Tenna,,46.012780,11.266696
1865,Rovereto-Aut.-V.Paoli,,45.891146,11.039910
1866,Rovereto-Via Craffonara,,45.886590,11.034169
1867,Rovereto-Via Calcinari,,45.886539,11.044667
1869,Rovereto-Ex Cartiera Ati,,45.887115,11.050652
1870,Rovereto-Rist. S.Colombano,,45.885320,11.059868
1871,Trattoria Genovesa,,45.882615,11.062600
1872,Toldo-Sp 50 Km 0.2 Balanzi,,45.877319,11.065784
1874,Toldo,,45.875509,11.068767
1875,Toldo-Loc. Auga,,45.874366,11.069823
1876,Moscheri,,45.868418,11.073189
1877,Clocchi,,45.866543,11.073862
1878,Barde,,45.862598,11.075467
1879,Vignala,,45.861926,11.082476
1880,Boccaldo,,45.857706,11.085127
1881,Boccaldo Alta,,45.857139,11.088107
1882,Giazzera Bivio,,45.861604,11.087086
1883,Pozza di Trambileno,,45.863266,11.085270
1884,Boccaldo Alta,,45.857597,11.087987
1885,Boccaldo   R,,45.857758,11.085257
1886,Vanza Vn,,45.854586,11.078518
1888,Vanza,,45.852886,11.077952
1889,Vanza-Civ. 82,,45.851556,11.077387
1890,Vanza-Bivio Pozzacchio,,45.846393,11.075715
1891,Pozzacchio,,45.835139,11.082507
1895,Lizzana,,45.866873,11.030681
1896,Lizzana-Rovercenter,,45.864519,11.029207
1897,Marco-Lavini,,45.854990,11.018110
1900,Marco-Via Varini,,45.836853,11.011000
1902,Serravalle,,45.809259,11.014916
1905,Marani-Loc.Cumer,,45.785085,11.018484
1910,Pilcante Bivio,,45.762285,11.004922
1913,Sdruzzinà-Loc.Campagnola,,45.742707,10.980734
1914,Sdruzzinà,,45.740832,10.977281
1915,Vò Sinistro,,45.735022,10.959229
1916,Sabbionara,,45.740019,10.957604
1918,Avio-Carabinieri,,45.736955,10.946500
1919,Avio,,45.735490,10.942934
1920,Avio-Cantina Sociale,,45.732037,10.938470
1921,Avio-Via M.Baldo,,45.731593,10.934435
1923,Avio-Zona Ind.Le,,45.730364,10.939478
1924,Avio-Loc.Dazio,,45.711912,10.926737
1925,Mama D'avio,,45.704726,10.921750
1926,Mama D'avio di Sotto,,45.700323,10.919016
1927,Borghetto,,45.698581,10.926962
1928,Borghetto-Cavalcaferr.,,45.699086,10.928925
1929,S.Leonardo,,45.704662,10.930990
1930,Masi D'avio,,45.712332,10.936854
1931,Rovereto-Via Cavour,,45.887281,11.034552
1933,Calliano-Bivio Folgaria,,45.933179,11.096306
1934,Dietrobeseno,,45.927046,11.118484
1935,Mezzomonte di Sotto,,45.916957,11.134879
1936,Mezzomonte,,45.916422,11.138921
1937,Peneri,,45.918996,11.145347
1938,Carpeneda,,45.912806,11.157002
1939,Folgaria-Ortofr.Bolognani,,45.918964,11.157834
1940,Folgaria-Via 25 Aprile,,45.918634,11.162222
1941,Folgaria-Via Battisti,,45.917297,11.166765
1943,Costa-Hotel Garden,,45.918747,11.186274
1944,Costa di Folgaria,,45.920179,11.188639
1945,Bivio Nocchi,,45.919068,11.198434
1946,Passo Del Sommo,,45.919505,11.206093
1947,S.Sebastiano,,45.925010,11.212057
1948,S.Sebastiano-Sez.Cacciatori,,45.925469,11.214887
1949,Bivio Cueli,,45.923764,11.216204
1950,Morganti,,45.929359,11.221272
1951,Morganti,,45.929174,11.220992
1952,Costa-Difr.Garden Hotel,,45.918768,11.186158
1954,Costa di Folgaria,,45.920368,11.189059
1956,Calliano-Bivio Folgaria,,45.933019,11.096720
1958,Villa Lagarina-A22,,45.914606,11.033873
1959,Villa Lagarina-Carabinieri,,45.916303,11.034064
1960,Piazzo di Villa Lagarina,,45.922241,11.033966
1961,Pomarolo,,45.926259,11.042605
1962,Pomarolo-Chiesa,,45.926405,11.045615
1963,Chiusole,,45.925420,11.053260
1964,Nomi,,45.928721,11.072323
1965,Nomi-Casa di Riposo,,45.927985,11.076155
1967,Rovereto-Via Bellavista,,45.890920,11.047005
1968,Campolongo-Noriglio,,45.887004,11.063812
1969,Noriglio,,45.884541,11.069559
1970,Noriglio-Beccachè,,45.882075,11.071791
1971,Costa di Noriglio,,45.884272,11.072990
1972,Valgrande-Sp 3 Km 8,,45.877090,11.105903
1973,Valgrande,,45.878839,11.111133
1974,Valduga-Prima,,45.876701,11.124251
1976,Valduga,,45.877809,11.129783
1977,Pedrazzi,,45.878152,11.142222
1978,Peltreri,,45.878740,11.148788
1979,Piazza di Terragnolo,,45.878928,11.152416
1980,Dosso,,45.877625,11.155665
1981,Puechem,,45.877317,11.157882
1982,Camperi,,45.874842,11.162644
1983,Baisi-Prima,,45.867655,11.180365
1985,Baisi,,45.867812,11.182548
1986,Zoreri,,45.866337,11.184371
1987,Zoreri-Soldati,,45.864869,11.190060
1988,Costa di Terragnolo,,45.880792,11.148055
1989,Castello,,45.880834,11.141527
1990,Potrich Bivio,,45.883305,11.123673
1991,Scottini-Prima,,45.884471,11.129213
1992,Scottini,,45.883890,11.135235
1993,Serrada,,45.890915,11.154072
1994,Serrada-Bivio Fondogrande,,45.896171,11.155748
1995,Mezzaselva,,45.906007,11.173589
1997,Folgaria-Rotatoria,,45.913038,11.178088
1998,Serrada,,45.891049,11.154039
1999,Mori-Terranera,,45.847885,10.983642
2000,S.Cecilia,,45.823141,10.998179
2001,Chizzola-Cava Cipriani,,45.819120,11.000156
2002,Chizzola-Sp. 90 Km 16.8,,45.817738,11.003965
2003,Chizzola-Euromobili,,45.813498,11.008311
2004,Chizzola,,45.809175,11.008767
2005,Villetta,,45.806899,11.010719
2006,S.Lucia di Ala,,45.797365,11.015412
2007,Pilcante-Capitelli,,45.772609,11.001559
2008,Pilcante-Scuole,,45.770486,11.001247
2009,Pilcante,,45.767191,11.000764
2010,Campagnola,,45.757938,10.992038
2011,Sabbionara-Casello Autostr.,,45.746871,10.976755
2013,Cornè-Bivio Saccone,,45.810939,10.980437
2014,Cornè-Fam.Coop,,45.807942,10.971566
2015,Corne',,45.808169,10.970922
2018,Pilcante-Cave,,45.778359,11.002675
2019,Rovereto-Via Dante,,45.885868,11.040363
2020,Rovereto-Viale Schio Civ. 19,,45.883683,11.043476
2021,Rovereto-Via Zugna Civ. 13,,45.884371,11.046558
2022,Bivio Porte di Trambileno,,45.883259,11.051312
2023,Dosso di Trambileno,,45.880222,11.051101
2024,Sich,,45.873857,11.058117
2025,Albaredo,,45.855995,11.061134
2026,Foppiano,,45.842063,11.061812
2027,Zanolli,,45.822792,11.070762
2028,Matassone,,45.815852,11.078229
2029,Aste,,45.790383,11.095312
2030,Cumerlotti,,45.787134,11.101382
2031,Riva di Vallarsa,,45.779570,11.105236
2032,Bruni,,45.776691,11.107624
2033,Geche,,45.769336,11.115939
2034,Obra di Vallarsa,,45.764916,11.116504
2035,Ometto,,45.759715,11.118827
2036,Rovereto-S.Maria,,45.883632,11.040799
2060,Vanza Bivio,,45.850946,11.073051
2061,Pozzacchio Bivio,,45.844983,11.074256
2062,Valmorbia,,45.818618,11.091659
2063,Valmorbia-Bivio Dosso,,45.816939,11.094622
2064,Zocchio,,45.809064,11.096515
2065,Anghebeni-Fam.Coop,,45.796466,11.105436
2066,Arlanch,,45.790988,11.102064
2067,S.Anna di Vallarsa,,45.794758,11.096737
2068,Arlanch,,45.791126,11.101786
2069,Anghebeni,,45.794140,11.107317
2070,Foxi,,45.789794,11.111886
2071,Foxi-Loc.Prugnele,,45.787188,11.109190
2072,Raossi-Loc.Corte,,45.782482,11.114263
2073,Raossi,,45.782692,11.118682
2074,Speccheri Bivio,,45.781151,11.124399
2075,Parrocchia di Vallarsa,,45.776986,11.123302
2076,Piano,,45.773237,11.131268
2077,Piano di Vallarsa,,45.771493,11.135679
2078,Streva,,45.762476,11.161870
2079,Pian Delle Fugazze,,45.760391,11.172669
2084,Spino,,45.860265,11.074844
2085,Speccheri,,45.765508,11.129886
2086,Camposilvano Ii,,45.758239,11.144360
2087,Camposilvano,,45.760188,11.144107
2099,Ronzo Chienis,,45.891087,10.951842
2100,Ronzo Chienis-Via Longa,,45.888625,10.948741
2101,Ronzo Chienis-Cons.Ortofrutta,,45.886909,10.946662
2102,Varano,,45.881318,10.938412
2103,Pannone,,45.877265,10.934161
2105,Nomesino,,45.865456,10.962700
2106,Manzano,,45.866737,10.953611
2107,Valle S.Felice,,45.868989,10.938219
2108,Loppio-Bivio,,45.855770,10.932164
2123,Tierno-Via G.Battisti,,45.847789,10.978015
2124,Tierno,,45.845531,10.977544
2125,Besagno,,45.837659,10.969125
2126,Castione,,45.837801,10.953532
2127,Brentonico-Ferramenta,,45.819440,10.958237
2128,Brentonico,,45.817937,10.956112
2129,Fontechel,,45.816501,10.948274
2130,Fontechel-Bivio S.Giacomo,,45.814087,10.945968
2131,Prada,,45.801037,10.955919
2132,Saccone-Loc. Al Bus,,45.796067,10.965987
2133,Saccone,,45.795393,10.974289
2134,Crosano Bivio,,45.821314,10.967065
2135,Brentonico-Mobil.Zoller,,45.822387,10.962756
2136,Sorne,,45.808236,10.953404
2137,Cazzano,,45.816981,10.969311
2138,Crosano-Via S.Biagio 21,,45.818968,10.975174
2141,Crosano-Fam. Coop.,,45.820049,10.975655
2142,Crosano-Via Mazzini,,45.820615,10.970804
2145,Cornè Loc. Gai,,45.808687,10.967860
2156,Tesero-Via Mulini,,46.296355,11.506062
2157,Tesero-Loc. Pesa,,46.305819,11.504988
2158,Stava-Chiesetta,,46.310264,11.505074
2159,Stava,,46.315421,11.503413
2163,Varena-Via Alpini-Dir.Lavazè,,46.307730,11.460137
2174,Civezzano-Quadrivio,,46.089186,11.185616
2187,Rovereto-Fs Sud,,45.890065,11.033659
2193,Civezzano-Oxford,,46.092559,11.179566
2194,Virti,,45.945491,11.238625
2210,Visintainer Bivio,,46.032736,11.267294
2211,Falesina,,46.071004,11.277772
2212,Ivano Fracena,,46.057114,11.528163
2213,Trento-Via Bezzi,,46.058466,11.119270
2214,Loc. Lochere,,45.989030,11.301001
2215,Quaere,,45.991113,11.303016
2216,Lochere Bivio Quaere,,45.991197,11.300217
2217,Predazzo-Piscina Com.,,46.311470,11.615521
2218,Bedollo-Inc.Osvaldo/Martinati,,46.165825,11.298951
2219,Bedollo-Via S.Osvaldo 26,,46.166497,11.300800
2220,Bedollo-Inc.Via S.Osvaldo/Pec,,46.168357,11.302237
2221,Barcatta-Civico 31,,46.251160,11.350430
2223,S.Giuliana-Via Delle Fonti 2,,45.989483,11.311520
2226,Fiera di Primiero,,46.162679,11.818537
2227,Fiera di Primiero,,46.172235,11.823741
2228,Molaren,,46.168000,11.820299
2229,Mezzano-Casa Ina,,46.156450,11.807987
2230,Transacqua-Albergo Belvedere,,46.177762,11.837163
2231,Transacqua-Piazza S.Marco,,46.174804,11.833422
2232,Transacqua-Isolabella,,46.175236,11.831617
2234,Tonadico-3 Ponti,,46.179984,11.837951
2236,S.Caterina di Pergine,,46.017255,11.227013
2241,Rocce Rosse,,46.031915,11.045708
2242,Rov.-C.Rosmini Pt,,45.891069,11.041276
2243,Rovereto-Via Vannetti,,45.890246,11.035597
2244,Rov.-C. Rosmini-Monu.,,45.890842,11.043033
2246,Cembra-Cimitero,,46.174568,11.217545
2247,Bosco-Maso Jobstraibizer,,46.113245,11.179416
2248,Arco-Svizzera,,45.921147,10.891383
2250,Arco Via S.Caterina,,45.912519,10.875504
2252,Hacleri,,46.124459,11.339734
2253,Calvola,,45.926474,10.832019
2254,Aldeno-Maso Canova,,45.964223,11.092597
2255,Valmesta Bivio Rif.Dismoni,,46.222916,11.808835
2256,Strigno-Via Roma,,46.063333,11.523678
2257,Roncogno--Maso Raot,,46.067440,11.209973
2258,Zivignago-Al Ponte,,46.072253,11.261136
2259,Viarago-Via Montegian,,46.079285,11.259876
2260,Passo Rolle-Albergo Venezia,,46.296223,11.782408
2261,Zava,,46.042112,11.251018
2263,Masetti-Paese,,46.051334,11.248911
2264,Ss.12 S.Ilario/Via Stroperi,,45.913228,11.044675
2265,Terlago-Centro Sportivo,,46.088960,11.047688
2266,Vason-Sp85 Al Km 17,,46.042742,11.061772
2267,Terlago-Via Fies,,46.099087,11.042564
2268,Monte Terlago-Loc. Boccari,,46.107772,11.033516
2269,S.Antonio di Mav.-Loc. Pozze,,46.183791,10.777007
2271,Cavrasto Itea,,46.018633,10.818609
2273,Balbido-Scuole,,46.016040,10.815917
2274,Ponte Arche Sp5 Civ. 1,,46.035110,10.868135
2278,Vigo Cavedine-Sp84,,45.977989,10.976708
2279,Luch-Bivio Con Via Del Ponte,,45.969281,10.968598
2280,Baselga Del Bondone,,46.078317,11.046923
2281,Besenello-Posta Vecchia,,45.951292,11.108365
2286,Enguiso Via Del Bo' Civ. 2,,45.909557,10.728931
2287,Bezzecca-Eurospin,,45.895357,10.715058
2288,Tiarno di Sotto Loc. Degara,,45.892989,10.690920
2289,Lodrone-Hotel Castel Lodrone,,45.830957,10.539451
2290,Ragoli "Croce",,46.054826,10.781590
2291,Bersone-Capolinea,,45.946322,10.632473
2292,Praso-Loc. Sevror,,45.953886,10.641928
2293,Molveno-Cimitero,,46.141389,10.965587
2295,Brione Case Itea,,45.879611,10.859099
2296,Brione H.Orchidea,,45.884339,10.862801
2297,S.Alessandro,,45.888068,10.862062
2299,S.Alessandro Via Rovigo,,45.886952,10.858210
2300,S.Alessandro Cartiera,,45.887068,10.855456
2301,S.Giorgio La Grotta,,45.893713,10.860859
2302,S.Giorgio,,45.898584,10.867403
2303,S.Giorgio Incr.V.Sabbioni,,45.900713,10.870375
2304,S.Giorgio Zona Artigianale,,45.904914,10.874925
2305,S.Giorgio Incr. Circonvall.,,45.908116,10.877805
2306,Arco Via Mantova 1,,45.909906,10.879503
2307,Arco Via Mantova 21,,45.912913,10.882712
2308,Arco Via Mantova Poste,,45.916064,10.884856
2309,Varone Via Venezia/Sega,,45.908163,10.845083
2310,Varone Via Venezia/Ferrari,,45.908613,10.842274
2313,Riva V.Rovereto Vv.Ff.,,45.884007,10.851075
2314,Riva Del G.-Via D. Chiesa,,45.888587,10.846175
2315,Tione-Istituto,,46.034811,10.728764
2316,Ss. 240-Stab. Sasib,,45.870294,11.016687
2317,Obra di Vallarsa Civ. 13,,45.766710,11.114411
2318,Eremo di S. Colombano,,45.878686,11.063386
2319,Rovereto-Via Barattieri,,45.896492,11.040687
2320,Tione Ospedale Civile,,46.043032,10.724962
2321,Vignole,,45.908948,10.901506
2322,Massone Inc.Via Gazzoletti,,45.916854,10.901286
2324,Pianizza Ii,,46.012192,11.147856
2326,Vattaro-Maso Fosina,,45.997039,11.211763
2327,Ss.349 Al Km. 15,,45.989043,11.222359
2329,Cornè-Loc. Lodrone,,45.805623,10.974985
2330,Loc. Landrom Civ. 1,,45.805458,10.941042
2331,Cornè Loc. Cave,,45.809262,10.981073
2332,Cornè Loc. Cave Ii,,45.808106,10.981856
2333,Piantino,,45.860713,10.937412
2334,Valle S.Felice-Cimitero,,45.867974,10.939727
2338,Montagnaga "Villa Alpina",,46.101490,11.236265
2340,Passo Cereda-Maso Vaietta,,46.197435,11.918313
2342,Pergolese,,46.026608,10.959251
2343,Masi di Vigo Cavedine,,45.965319,10.973622
2344,Por,,45.938517,10.648236
2345,Villa Lagarina-Via Magrè,,45.917603,11.033513
2346,Pomarolo-Via Del Pionte,,45.925171,11.048059
2349,Bastianello,,45.762873,11.127614
2350,Pezzati,,45.764686,11.126436
2351,Agordo-Luxottica,,46.284248,12.021344
2352,Vigile,,45.973218,11.057989
2353,Costa di Cimone,,45.978262,11.060241
2354,Finestrella,,45.980687,11.061054
2355,Pietra di Cimone,,45.981134,11.063692
2356,Guardia di Folgaria,,45.907383,11.132643
2357,Rosetta,,46.181863,11.831854
2358,Regnana Via Dei Tamagi,,46.158144,11.303494
2359,Pieve Tesino Vigili Del Fuoco,,46.066538,11.615642
2362,Levico T.-Inc. Via Delle Alte,,46.017559,11.341849
2363,Gionzeri,,46.057249,11.409701
2364,Strigno,,46.066556,11.523254
2365,Spera-Capolinea.,,46.075035,11.506866
2367,Villa-Solo Dir. Strigno Fs,,46.056889,11.519595
2368,Cadino,,46.217404,11.153411
2371,Sopramonte Sp85 Loc. La Valle,,46.075881,11.056030
2372,Sopramonte Sp 85,,46.075775,11.058709
2373,Sopramonte,,46.071315,11.059208
2374,Maso Banal,,46.069074,11.063408
2376,Cavalese-Ospedale,,46.289132,11.454838
2377,Falcade Bivio Passo Valles,,46.360072,11.844299
2379,S.Martino di C.-Ex V.Pisoni,,46.277777,11.798406
2380,Trento Via Piave,,46.062106,11.125369
2381,Trento-Via Ambrosi,,46.076700,11.123223
2382,Caderzone Bivio Con Via Pozze,,46.124768,10.754291
2383,Lisignago-Casa di Riposo,,46.161789,11.198439
2384,Caloneghi,,46.198208,11.318204
2385,Male',,46.353568,10.916865
2386,Terzolas-Bivio Val di Rabbi,,46.358215,10.917237
2387,Magras-Bivio,,46.360122,10.912466
2388,Magras-Loc. Molini,,46.366694,10.891517
2389,Pracorno-Sud,,46.370048,10.883505
2390,Pracorno,,46.373171,10.878309
2391,Pracorno Bivio Pozze,,46.378808,10.869665
2392,Tasse',,46.390586,10.860429
2393,Tassè Nord,,46.394024,10.856873
2394,S.Bernardo Sud,,46.398432,10.849463
2395,S.Bernardo,,46.401240,10.845317
2396,Piazzola Bivio,,46.406018,10.828573
2397,Casna,,46.406059,10.831614
2398,Penasa-Bivio,,46.406915,10.832112
2399,Nistella,,46.408996,10.828337
2400,Crespion,,46.410259,10.823660
2401,Piazzola,,46.410436,10.817919
2402,Piazzola-Nord,,46.409742,10.814025
2403,Somrabbi-Sud,,46.409815,10.810178
2405,Somrabbi-Misseroni,,46.409866,10.803284
2406,Somrabbi,,46.410071,10.800285
2407,Rabbi Bagni-Sud,,46.407767,10.811438
2408,Rabbi Bagni-Bar Stella,,46.407756,10.813272
2409,Rabbi Bagni,,46.407620,10.808739
2410,Masnuovo,,46.407370,10.824474
2411,Male' Nord,,46.350062,10.909675
2414,Monclassico Sud,,46.335934,10.893306
2415,Monclassico,,46.333268,10.888506
2416,Presson,,46.332437,10.879967
2417,Dimaro Bivio,,46.327363,10.872176
2418,Dimaro,,46.325736,10.874813
2419,Maso Bonetei,,46.320999,10.872238
2420,Costa Rotian,,46.317748,10.867682
2421,Folgarida,,46.305592,10.863346
2422,Sun Valley,,46.304640,10.867093
2423,Belvedere,,46.297442,10.867492
2424,Genziana,,46.260118,10.854862
2426,Trento-Staz. Ftm,,46.07439,11.12080
2427,Cles-Autostazione,,46.364609,11.038663
2429,Mangiasa,,46.350219,10.899069
2430,Claiano Bivio,,46.312711,10.776897
2431,Pellizzano,,46.311377,10.757834
2432,Termenago Sud,,46.315408,10.764912
2433,Termenago,,46.316573,10.765807
2434,Castello di Pellizzano,,46.321750,10.774400
2435,Ortisè,,46.326213,10.784864
2436,Menas,,46.328403,10.786377
2437,Bolentina,,46.344185,10.883605
2438,Montes,,46.340465,10.875564
2440,Dimaro-Ponte,,46.327957,10.870296
2441,Deggiano Bivio,,46.323839,10.851495
2442,Mastellina,,46.322222,10.846842
2443,Mestriago,,46.321368,10.839837
2445,Piano di Commezzadura,,46.320439,10.825419
2446,Mezzana-Est,,46.317140,10.806690
2447,Mezzana,,46.315846,10.802010
2448,Mezzana-Ovest,,46.316772,10.798611
2452,Cusiano,,46.309863,10.745642
2453,Ossana,,46.307528,10.736464
2454,Fucine,,46.311165,10.731621
2455,Cortina di Vermiglio,,46.299593,10.699089
2456,Vermiglio Sud,,46.297618,10.695769
2457,Vermiglio,,46.296726,10.689145
2458,Vermiglio Nord,,46.294790,10.686164
2459,Vellon Bivio,,46.283583,10.659509
2460,Forte Strino,,46.280068,10.648355
2461,Passo Tonale-Anas,,46.263321,10.611651
2462,Passo Tonale-Locatori,,46.261366,10.594410
2463,Passo Tonale Sud,,46.260063,10.586561
2464,Passo Tonale,,46.258871,10.583569
2465,Marilleva 900,,46.314155,10.811592
2466,Marilleva "Albergo Sole Alto",,46.298520,10.818789
2467,Marilleva "Telecabina",,46.300719,10.813810
2468,Marilleva 1400 "Ag.Alpitour",,46.302481,10.810259
2469,Marilleva 1400 "Resid. Lores",,46.303610,10.809153
2470,Marilleva 1400,,46.304257,10.809213
2475,Celentino Bivio,,46.332813,10.709894
2476,Comasine Bivio,,46.335960,10.706466
2477,Celledizzo Bivio,,46.343942,10.701441
2478,Cogolo,,46.351466,10.693236
2479,Peio-Campeggio Val di Sole,,46.356724,10.679113
2480,Peio-Fonti,,46.355636,10.662975
2481,Peio,,46.363725,10.675415
2511,Mezzolombardo,,46.213452,11.093443
2512,Mezzocorona-Borg.,,46.214948,11.118695
2513,Mezzocorona-Staz.Fs,,46.207570,11.128292
2514,Mezzocorona-Pineta,,46.222934,11.133542
2515,Maso Nuovo,,46.229732,11.140831
2516,Roverè Della Luna-Sud,,46.246991,11.164688
2518,Roverè Della Luna-Nord,,46.248489,11.177240
2519,Mezzocorona Ferrovia,,46.206335,11.127415
2520,Grumo,,46.196958,11.127338
2521,Maso Barco,,46.199916,11.142321
2522,Maso Canazzi,,46.195686,11.144587
2523,Villa Piccola,,46.197030,11.148027
2524,Molini,,46.193123,11.154744
2526,Faedo-Via Case Sparse. 9,,46.191841,11.155681
2527,Faedo,,46.192668,11.161231
2528,Lavis-Staz. Ftm,,46.138142,11.108822
2529,Zambana,,46.151196,11.096590
2530,Zambana-Staz. Ftm,,46.147585,11.099445
2531,Mezzolombardo-Nord,,46.216896,11.087200
2532,Spormaggiore,,46.218109,11.047995
2533,Spormaggiore Zona Industriale,,46.227458,11.051655
2534,Spormaggiore Sud,,46.225060,11.049374
2535,Castel Belfort,,46.204621,11.040809
2536,Cavedago,,46.184023,11.028968
2537,Cavedago,,46.183709,11.027375
2538,Cavedago Ai Piani,,46.190764,11.041592
2539,Cavedago Maso Canton,,46.185762,11.039476
2540,Maso Dalsas,,46.184816,11.023580
2541,Cavedago-Cimitero,,46.185023,11.021294
2542,Andalo,,46.163920,11.002762
2543,Andalo Sud,,46.171090,11.007803
2544,Andalo-Via Trento,,46.166961,11.003857
2545,Genzianella,,46.151466,10.980892
2546,Molveno Nord,,46.144090,10.966110
2547,Molveno Htl Excelsior,,46.142605,10.962445
2548,Trento-L.Go N. Sauro,,46.074839,11.125033
2550,Maso Daldoss,,46.182711,11.019719
2551,Fai Paganella,,46.179005,11.070116
2552,Fai Paganella-Sud,,46.183826,11.072533
2553,Fai Paganella,,46.177583,11.069132
2554,Cortalta-Fai Della Paganella,,46.175510,11.065073
2555,Fai Paganella-Miravalle,,46.175485,11.058938
2557,Santel,,46.175704,11.052306
2558,Andalo-Maso Toscana,,46.169857,11.017019
2559,Andalo-Nord,,46.168088,11.008341
2560,Andalo-Via Paganella,,46.164957,11.007217
2561,Rallo Bivio,,46.350029,11.051765
2562,Rallo,,46.342731,11.046707
2563,Sanzenone,,46.335328,11.044682
2564,Pavillo,,46.331334,11.040788
2565,Tuenno Nord,,46.332295,11.025508
2566,Tuenno,,46.325965,11.022364
2567,Nanno,,46.314835,11.047438
2568,Portolo,,46.303254,11.059854
2569,Cles-Piazza Chiesa,,46.364641,11.036415
2570,Tassullo,,46.341056,11.053745
2571,Trento Nord-Zona Commerciale,,46.09014,11.11306
2572,Gardolo-Ferrovia,,46.108097,11.104558
2573,Spini-Zona Industriale,,46.118667,11.104856
2574,Lamar,,46.125960,11.107593
2576,Nave S.Felice,,46.166862,11.113223
2578,Grumo-S.Michele A/A.,,46.19388,11.12790
2579,Mezzacorona Ferrovia,,46.21423,11.11880
2581,Mezzolombardo Ferrovia,,46.213454,11.093294
2582,Masi di Vigo,,46.238967,11.062266
2583,Crescino,,46.241916,11.058485
2584,Denno,,46.263593,11.060205
2586,Mollaro,,46.294617,11.068172
2587,Segno Ferrovia,,46.304610,11.071497
2588,Taio Ferrovia,,46.3221,11.06767
2589,Dermulo Ferrovia,,46.337566,11.063165
2590,Tassullo Ferrovia,,46.3408,11.05388
2591,Cles Ferrovia,,46.364542,11.038895
2592,Cles-Polo Scolastico,,46.36999,11.03374
2593,Mostizzolo,,46.393921,11.011321
2594,Bozzana,,46.388816,10.988814
2595,Tozzaga Ferrovia,,46.382109,10.970715
2596,Cassana Ferrovia,,46.375769,10.960513
2597,Cavizzana Ferrovia,,46.371612,10.952043
2598,Caldes Ferrovia,,46.366110,10.943240
2599,Terzolas Ferrovia,,46.35806,10.92568
2600,Male' Ferrovia,,46.353540,10.916942
2601,Croviana Ferrovia,,46.34384,10.90721
2602,Monclassico Ferrovia,,46.33251,10.88946
2604,Dimaro Ferrovia,,46.328910,10.872232
2605,Mastellina Ferrovia,,46.32223,10.84767
2606,Daolasa Ferrovia,,46.31964,10.83612
2609,Cles-Ospedale,,46.360727,11.031517
2610,Cles-Masere,,46.356839,11.029223
2611,Mechel-Sud,,46.351335,11.022417
2612,Mechel--Civ. 19,,46.349423,11.020085
2613,Mechel,,46.348916,11.018220
2614,Piano di Commezzadura,,46.31751,10.82643
2615,Marilleva 900,,46.31527,10.81219
2616,Pozza di Fassa "Loc. Vac",,46.432642,11.687083
2617,Mostizzolo-Bivio,,46.393807,11.011668
2618,Toflini,,46.399781,11.010735
2619,Scanna,,46.396204,11.025740
2620,Varollo,,46.398140,11.022169
2621,Livo,,46.405418,11.017741
2622,Preghena Ovest,,46.409016,11.010463
2623,Baselga di Bresimo,,46.415259,10.985103
2624,Bresimo Sud,,46.412205,10.973595
2625,Bresimo,,46.410794,10.968255
2626,Preghena Nord,,46.409637,11.016806
2627,Marcena Molini,,46.444993,11.009923
2628,Marcena,,46.441917,11.017475
2630,Marcena Ori,,46.440813,11.021925
2631,Corte Inferiore Bivio,,46.439028,11.025890
2632,Mione,,46.437083,11.027969
2633,Marcena Du Park,,46.445771,11.013295
2634,Corte Superiore Bivio,,46.448624,11.011240
2635,Scassio,,46.449562,11.009059
2636,Mocenigo,,46.450900,11.008221
2637,Lanza di Rumo,,46.454750,11.012450
2638,Truzzi Bivio,,46.239470,11.062324
2639,Truzzi Nord,,46.243084,11.063909
2643,Masi di Vigo-Bivio,,46.248990,11.068939
2644,Bastianelli,,46.257920,11.082715
2645,Vigo di Ton,,46.265372,11.086167
2646,Vigo di Ton-Nord,,46.263933,11.081178
2647,Bivio Raut,,46.261436,11.075689
2648,Raut,,46.254575,11.069653
2649,Toss-Sud-Via Verdi,,46.275582,11.080015
2650,Toss,,46.276612,11.079293
2651,Lavis--Via Filos,,46.145606,11.097286
2652,Zambana Aicheri,,46.154152,11.092792
2653,Maso Gesuiti,,46.156479,11.091745
2654,Maso San Valentino,,46.159261,11.098110
2655,Nave San Rocco,,46.166352,11.109802
2656,Masetto,,46.171237,11.105359
2657,Maso Inon,,46.177718,11.105564
2658,Maso Tabarelli,,46.182694,11.105639
2659,Rupe,,46.195455,11.101801
2660,Mezzolombardo Stella,,46.209487,11.094155
2661,Crescino,,46.241885,11.058665
2662,Denno Magazzino,,46.266671,11.055952
2663,Cagnò,,46.394922,11.040170
2664,Revò,,46.390858,11.059223
2665,Romallo,,46.396342,11.066059
2666,Romallo Nord,,46.399681,11.068547
2667,Cloz Sud,,46.416351,11.084548
2668,Cloz,,46.419465,11.087258
2669,Cloz-Nord,,46.421863,11.089961
2670,Arsio,,46.426557,11.096350
2671,Brez,,46.430992,11.107223
2672,Castelfondo,,46.454373,11.117516
2673,Fondo-Piazza S.Giovanni,,46.439416,11.135808
2674,Fondo-Via Garibaldi,,46.437269,11.137786
2675,Fondo-Autorimessa,,46.436126,11.140681
2676,Denno,,46.274960,11.048179
2677,Cunevo,,46.285934,11.037961
2678,Flavon,,46.299109,11.031190
2679,Terres,,46.309982,11.022795
2680,Tuenno-Sud,,46.321470,11.021827
2681,Mechel Bivio,,46.352206,11.027089
2683,Santa Giustina,,46.346039,11.060428
2684,Dermulo,,46.337645,11.062917
2685,Coredo,,46.348752,11.088969
2686,Smarano,,46.341949,11.107755
2687,Sfruz,,46.336818,11.115841
2688,Tret,,46.478291,11.138235
2694,Sporminore,,46.237349,11.031290
2695,Sporminore Nord,,46.239613,11.023899
2696,Lover,,46.247526,11.024542
2697,Campodenno-Bivio,,46.258800,11.032814
2698,Quetta-Bivio,,46.258112,11.046466
2699,Termon,,46.268090,11.036287
2701,Palu' di G.-C.Polisportivo,,46.159422,11.143570
2702,Sanzeno,,46.365670,11.074273
2703,Malgolo,,46.378329,11.088787
2704,Malgolo-Nord,,46.380902,11.094416
2705,Salter,,46.377512,11.105840
2706,Salter-Nord,,46.381139,11.107306
2707,Romeno,,46.393983,11.119956
2708,Cavareno-Loc. Piena,,46.402899,11.132187
2709,Cavareno,,46.409370,11.137490
2710,Sarnonico,,46.418620,11.140698
2711,Fondo-Sud,,46.432346,11.140639
2712,Malosco,,46.434123,11.144997
2714,Belvedere di Ronzone,,46.428060,11.154396
2715,Ronzone,,46.424321,11.151776
2716,Ronzone-Sud,,46.419660,11.146720
2717,Ruffrè-Bivio,,46.417474,11.166256
2718,Ruffrè-Giordani,,46.419337,11.175865
2719,Ruffre',,46.416263,11.176873
2720,Ruffrè-Valletta,,46.414455,11.185064
2722,Mendola,,46.418340,11.204664
2723,Passo Mendola,,46.416009,11.208159
2724,Banco,,46.374469,11.069688
2725,Casez,,46.375792,11.075892
2727,Don,,46.389919,11.136609
2728,Amblar,,46.395277,11.144171
2730,Piano-Sanzeno,,46.369418,11.070060
2731,Cis,,46.399465,11.003162
2732,Cis-Sud,,46.397800,11.007481
2734,Dambel,,46.405174,11.092372
2735,Seio,,46.416811,11.126723
2736,Caldes,,46.366173,10.943217
2737,Cassana,,46.375715,10.960524
2738,Tozzaga,,46.382041,10.971017
2739,Bozzana,,46.388715,10.988650
2740,Mollaro,,46.294658,11.075055
2741,Tuenetto Bivio,,46.297304,11.080508
2742,Dardine,,46.286258,11.082410
2743,Priò,,46.289656,11.093724
2744,Vervo',,46.307291,11.118663
2745,Tres,,46.320318,11.094056
2746,Taio,,46.321648,11.066397
2747,Campodenno-Piazza,,46.258032,11.034519
2748,Zambana-Statale 12,,46.150336,11.100145
2751,Mollaro-Parcheggio Ftm,,46.294247,11.067977
2758,Pineta di Faedo,,46.197721,11.168364
2759,Dovena,,46.454276,11.130506
2760,Raina,,46.458930,11.119578
2761,Hacleri-Sp 135 Km. 8.8,,46.113461,11.324593
2762,Hacleri-Sp 135 Al Km. 9.9,,46.116172,11.333322
2763,Ala-Albergo Città di Ala,,45.754163,10.997392
2766,Dosso-Vallarsa,,45.819708,11.092332
2767,Staineri,,45.797292,11.093556
2768,Cavalese-Via Degli Artigiani,,46.288964,11.448017
2769,Cavalese-P.Zza Francescani,,46.292004,11.458578
2770,Barco Zechinati,,46.000894,11.329780
2771,Moncovo,,46.263613,11.060231
2772,Segonzone Bivio,,46.250070,11.031818
2775,Arco Viale Rovereto,,45.913004,10.897338
2776,Cles-Piazza Fiera,,46.367852,11.034999
2778,Mostizzolo,,46.394209,11.013361
2779,Cles-Viale Trento,,46.356259,11.038093
2780,Terzolas-Bivio Paese,,46.358263,10.925114
2782,Ponte Oliveti,,46.042757,10.962265
2783,Villini,,46.417202,11.190257
2784,Geroli,,45.865050,11.170175
2785,Bivio Passo Valles,,46.308565,11.751183
2786,S.Giacomo di Brentonico,,45.798773,10.919616
2787,Passo S.Valentino,,45.783110,10.912169
2788,Arco S.Caterina Poli Reg.,,45.909505,10.870503
2790,Arco S.Caterina Poli Reg.,,45.909916,10.870985
2792,Dro-Ss.45-Hotel Eden,,45.970063,10.923463
2794,Masi di Mezzo,,46.028019,11.227058
2795,Maso Canela,,46.022087,11.227065
2796,Canale di Pergine V.,,46.043635,11.227039
2798,Vignola,,46.044539,11.277071
2799,M.Terlago-Inc. Via Paganella,,46.110766,11.038259
2800,Vigo Cavedine-V.Capitello,,45.981509,10.977915
2801,Montesover-Tornante,,46.219136,11.325826
2803,Sornello-Piazzale Ex Dogana,,46.182122,11.122684
2806,Ponte Ragoli    R,,46.050613,10.785158
2807,Battisti,,46.131142,11.361705
2808,Pergolese-V.Dell'agricoltura,,46.032987,10.959916
2809,Pergolese-Inc Via Dos Dei Pini,,46.030486,10.958820
2810,Lavarone C.-Ht. Monte Rust,,45.943991,11.248563
2811,Palù Del F.-Loc.Tolar Civ. 69,,46.130616,11.357967
2812,Valda-P.Zza Melari. 4,,46.208059,11.256599
2813,Grumes-Via Fontanelle,,46.219672,11.293096
2814,Capriana-Loc. Miravalle,,46.261787,11.343111
2816,Daiano-Ss620 Bivio Per Daiano,,46.299754,11.452598
2817,Canal S.Bovo-Loc. Giaroni,,46.161766,11.714310
2818,Transacqua-Via Navoi 66,,46.168886,11.825254
2819,S.Martino di C.-Motel Taufer,,46.252478,11.802392
2820,Sardagna-Rotatoria,,46.065664,11.095495
2825,Folgaria-P.Le N.Unite,,45.913941,11.170211
2827,Mezzomonte-Az. Agricola,,45.919873,11.141608
2828,Costa-Via A.Maffei,,45.920588,11.193240
2829,Sega,,45.865707,11.175619
2830,Fai Paganella-A.Stella Alpina,,46.180891,11.071658
2831,Molveno-Via Nazionale 73,,46.145717,10.971196
2834,Mezzocorona-Furlan Legnami,,46.224367,11.133563
2835,Mezzocorona-Via Borgo Nuovo,,46.217154,11.127366
2837,Rallo-Maierhofer,,46.351432,11.053898
2838,Coredo-Distributore Repsol,,46.347121,11.079379
2839,Tavon,,46.363029,11.095308
2840,Fontanefredde,,46.330364,11.374273
2841,S.Lugano,,46.311565,11.394020
2842,Sporminore Bivio,,46.240719,11.056909
2847,S.Michele A/Adige,,46.193212,11.133220
2871,Assizzi,,46.050572,11.257424
2894,Canale di Pergine Valsugana,,46.042118,11.229602
2899,Trento Nord,,46.095106,11.116921
2918,Stabilimento Whirlpool,,46.118254,11.096919
2941,S.Michele A/A.-Ist. Agrario,,46.194089,11.135444
3002,Cembra-Polo Scolastico,,46.172897,11.223458
3019,Pian Del Gac,,46.130680,11.204216
3037,Predazzo-I.T.C.,,46.310910,11.599020
3057,Pozza di Fassa-Istituto Arte,,46.423109,11.682661
3082,Vanza Sp50,,45.856329,11.079678
3109,Trento-Bellevue,,46.053214,11.136442
3122,Piazzo di Segonzano,,46.182086,11.252866
3134,Molina di Ledro-Sc.Elementare,,45.870840,10.774516
3141,Enguiso-Scuola Elementare,,45.904428,10.729468
3149,Tiarno di Sopra-Sc. Elem.,,45.888920,10.670416
3154,Pranzo,,45.922618,10.818157
3155,Pranzo Via Dei Castagni,,45.924838,10.817236
3156,Pranzo Via Pernici,,45.922592,10.818092
3160,Campi Bivio Sp 37,,45.925537,10.815170
3167,P.Arche-Sc.Medie,,46.035620,10.870542
3172,Favrio,,46.000487,10.856972
3213,Tione-Via Circonvallazione 65,,46.036584,10.728160
3244,Bocenago-Paese,,46.120707,10.760843
3248,Porte di Trambileno,,45.883438,11.052388
3249,Porte di Trambileno-Chiesa,,45.883305,11.053762
3291,S.Ilario I.T.I.,,45.910555,11.041964
3308,Rovereto Scuola Ex Edili,,45.879909,11.035312
3319,Tret Nord,,46.480185,11.142110
3325,Rovereto-Ist. Don Milani,,45.894292,11.032808
3328,Rovereto-Sc.Elementari R.Elena,,45.888073,11.039361
3331,Rovereto-Sc.Medie Negrelli,,45.896365,11.043286
3332,Rovereto--Via Manzoni,,45.892256,11.038973
3334,Rovereto-Studentato Rosminiano,,45.882186,11.042934
3382,Acheni,,45.836615,11.076857
3392,Noriglio "Distributore",,45.887519,11.059261
3401,Valle di Terragnolo,,45.881116,11.149756
3437,Mori-Sc.Medie,,45.852589,10.984853
3490,Taio-Plesso Scolastico,,46.322115,11.069508
3494,Brentonico-Sc.Elem/Media,,45.819109,10.956539
3531,Villazzano-Staz.Fs,,46.044588,11.139609
3555,Parlo,,46.180634,11.251654
3576,Baselga di Pinè-Sc.Medie,,46.128335,11.244239
3597,Pergine V. Bivio Via Industria,,46.069437,11.237763
3606,Pergine V.-Scuole Andreatta,,46.068639,11.245424
3623,S.Vito di Pergine,,46.035145,11.220262
3628,Pergine-Loc. Buss,,46.088307,11.225966
3645,Levico T.-Ex Scuole Medie,,46.009370,11.305503
3655,Marter Via Nazionale 24,,46.037113,11.398467
3666,Madice-Loc. Maton Civ. 1,,46.020909,10.826261
3767,Revedea,,46.152845,11.745976
3776,Tonadico-Scuole Elementari,,46.179527,11.835660
3779,Malè-Ex Stazione Ftm,,46.352922,10.914909
3786,Siror Centro Sportivo,,46.190727,11.828292
3805,Mezzocorona Scuole Medie,,46.213267,11.117117
3806,Mezzolombardo Autostile,,46.206818,11.095894
3807,Mezzolombardo Sc. Elementare,,46.214108,11.092489
3808,Mezzolombardo Sc. Media,,46.216559,11.092362
3809,Mezzolombardo Via Milano,,46.208839,11.093689
3813,Castelletto di Ton,,46.247143,11.062585
3816,Dercolo,,46.250410,11.044558
3817,Denno Scuola Media,,46.270785,11.048638
3819,Cles Centro Sportivo,,46.344184,11.026766
3869,Ala Scuole,,45.756437,11.001202
3871,Porte-Dosso,,45.881437,11.054570
3872,Rovereto-Via S.Maria. 66,,45.884662,11.042891
3873,Rovereto-Via Zugna Civ. 48,,45.884392,11.049382
3893,Mezzana-Centro Sportivo,,46.313819,10.797371
3895,Cavizzana Bivio,,46.371565,10.952171
3901,Bolentina Sud,,46.344970,10.889468
3910,Le More,,46.404624,10.836070
3911,Rabbi Bagni-Vecchia Fonte,,46.407744,10.810045
3916,Canal S.Bovo-Sc.Unica A Lausen,,46.151269,11.734022
3917,Mollaro Ss,,46.294139,11.067207
3918,Segno Ss,,46.304717,11.071514
3928,Riva V.Carducci H.Liberty,,45.885755,10.846558
3944,Vezzano-Apt,,46.075558,10.996341
3946,Ala-Stazione Fs,,45.759057,10.996513
3947,Vò Sinistro-Passaggio Livello,,45.734317,10.957314
3950,Lausen P.Le Impresa Grisotto,,46.150588,11.735762
3951,Lausen Loc. Pradel,,46.149687,11.738813
3956,Pietramurata-Carr.Toccoli,,46.027956,10.945693
3958,Aste Basse,,45.790320,11.096300
3959,Tesero-Via Roma,,46.289215,11.502906
3960,Trento-Via Guardini,,46.091632,11.119298
3961,Cavalese-Palacongressi,,46.288954,11.465621
3967,Trento-Cavalcavia S.Lorenzo,,46.070045,11.116683
3969,Pietramurata-Stab.Mecc.Sarca,,46.025811,10.944803
3970,Torcegno-Maso Mocchi,,46.073766,11.444568
3971,Vezzano Sud,,46.076071,10.996890
3972,Moncovo-Paese,,46.260916,11.062920
3974,Trento-Via Sardagna Civ. 104,,46.072035,11.099473
3981,Primolano-Ex Staz. Fs,,45.965598,11.701749
3982,S.Margherita-Via Trento,,45.793670,11.022814
3994,Rovereto C.So Rosmini,,45.890887,11.038602
3995,Pomarolo-Via Rovereto,,45.923522,11.041614
3996,Sant'ilario Via Lagarina,,45.910313,11.039879
4001,Sanzeno Nord-Museo Retico,,46.369289,11.079676
4003,Romeno-Civ. 38,,46.399287,11.127024
4004,Romeno-Caseificio,,46.401119,11.128721
4006,Bocenago,,46.116993,10.757671
4007,Cavareno-Centro Commerciale,,46.412956,11.139657
4009,Cimego-Albergo Aurora,,45.912809,10.619455
4010,Zortea-Masi di Mezzo,,46.163848,11.747301
4011,Agnedo-Strada Statale,,46.048313,11.529300
4013,Cavedago-Albergo Olisamir,,46.185905,11.032963
4016,Raut-Sp 203 Dif. Civ. 1,,46.257106,11.071562
4018,Sarnonico-Agip,,46.426919,11.141869
4019,S.Floriano,,46.283385,11.240012
4020,Vaneze-Sp 85 Civ. 20,,46.052109,11.073303
4021,Lisignago-Campo Sportivo,,46.158861,11.192014
4022,Preore-Campo Da Tennis,,46.044768,10.752263
4024,Masi D'avio Ss.12 Civ. 2,,45.719509,10.940406
4025,Castelletto-Bar Rustico,,46.246769,11.062364
4026,Truzzi-Trattoria,,46.239470,11.062362
4027,Ravazzone-Via Del Dazio,,45.863119,10.997312
4028,Viarago Via Vinciguerra 33,,46.080590,11.264625
4029,Loc. Cazzanelli di Cornè,,45.805462,10.979111
4030,Pieve di Ledro-Via Nuova,,45.890616,10.727428
4032,Mezzolombardo Corso Del Popolo,,46.214318,11.091540
4038,Arco P. Foro Boario,,45.918164,10.887945
4040,Arco Via Frumento,,45.916303,10.876895
4041,Arco Via Marconi,,45.917805,10.885160
4047,Pasina,,45.903954,10.849881
4060,Varignano Via Grazie/Veneto,,45.916255,10.858904
4061,Vigne Cimitero,,45.919409,10.863098
4063,Covelo-Incr. Sp18,,46.093539,11.016990
4066,Mattarello-Via Nazionale,,46.012407,11.130568
4068,Mattarello-Regole,,46.013560,11.131504
4069,Arco V.Cesare Battisti,,45.918508,10.882411
4070,Pergolese-Via Lungolago 3/10,,46.024706,10.959946
4071,Pergolese-Via Lungolago 29,,46.021562,10.959047
4072,Lago Cavedine-Civ. 7,,46.017361,10.958937
4074,Lago Cavedine-Civ. 21,,46.012118,10.957099
4076,Lago di Cavedine-Predorighi,,45.994059,10.951554
4077,Lago di Caveine-Trebi,,45.990709,10.942695
4078,Lago di Cavedine-Bv.Lastoni,,46.003468,10.956083
4079,Lago di Cavedine-Civ. 25,,46.007505,10.956884
4082,Aste Basse-Dir. S.Anna,,45.790542,11.096463
4084,Rovereto C.So Rosmini 61,,45.890963,11.037817
4086,Rovereto-Parco Ferrari,,45.877911,11.033332
4091,Rovereto-Santuario M.Del Monte,,45.879717,11.041039
4100,Via Dei Colli-Tornante,,45.888407,11.054878
4108,Riva V.Le Rovereto Coop,,45.881839,10.854328
4115,Trento-Via Zambra-Ist.Arte,,46.092360,11.116454
4116,Trento-Via Zambra-Top Center,,46.091190,11.117910
4120,Rovereto Via Saibanti,,45.888137,11.036760
4140,Rovereto-Via Manzoni,,45.893341,11.036164
4141,Capriana-Maso Conti,,46.256856,11.332910
4145,Carano-Via Paredon/Cimana,,46.294217,11.438876
4146,Mezzomonte Civ. 23-Fontana,,45.918043,11.134534
4147,Mezzomonte Finito Paese Km 6.3,,45.918456,11.138418
4148,Cornè Bivio Per Saccone,,45.810266,10.979268
4149,Storo-Via Sette Civ. 8,,45.848472,10.574439
4153,Lausen-Bar Lagorai,,46.148563,11.735015
4154,Pergine V.-C.Intermodale,,46.063360,11.231388
4155,Feltre Pasquer,,46.021627,11.920064
4156,S.Francesco-Maso Prigheli,,46.105438,11.314606
4163,Candriai-Sp 85 Km. 9.4,,46.062236,11.079694
4165,Molina di Fiemme-Via Cembra 47,,46.268508,11.410247
4167,S.Antonio.Di Mav. Maso Mistrin,,46.193516,10.792873
4178,Rovereto Zona Ind."Luxottica",,45.864912,11.017706
4179,Rov.Z.Ind. "Viale Industria",,45.871712,11.020613
4189,Costasavina Via Della Uta,,46.059810,11.217256
4192,Rov.Z.Ind. "Rovercenter",,45.863789,11.027037
4194,Terlago Via Per Vezzano 9,,46.099436,11.032602
4195,Dietrobeseno-Chiesetta,,45.925137,11.120464
4198,Rallo-Via S.Gioan,,46.345334,11.048564
4199,Sfruz Loc. Credai,,46.340996,11.128373
4200,Vervo'-Via Trento Civ. 8,,46.308437,11.116045
4213,Ronzone Nord,,46.426364,11.159405
4216,Cles-Negozio Mascotti,,46.361669,11.037271
4217,Cles-Ex Bentivoglio,,46.358211,11.037125
4218,Cles-Ex Dorigoni,,46.352469,11.046660
4224,Volano-Via Des Tor,,45.917441,11.057459
4228,Rovereto Z.Ind.V.Di Vittorio34,,45.863112,11.020759
4230,Revò P.Madonna,,46.390909,11.057644
4232,Lover-Hotel Lover,,46.250121,11.025891
4233,Flavon Nord,,46.301834,11.028059
4234,Mori-Terranera-Scol.Rotatoria,,45.847758,10.983715
4236,Mezzolombardo V.Trento 31,,46.192662,11.098790
4238,Maso Quadrifoglio,,46.173866,11.105303
4239,Loc. Ischia Civ. 4,,46.173243,11.105461
4243,Rovereto Via Halbherr,,45.885043,11.037665
4244,Seio Paese,,46.418672,11.127114
4245,Seio Centro Sportivo Verde,,46.411721,11.118516
4246,Malosco Segheria Fanti,,46.430340,11.151857
4247,Malosco H.Bucaneve,,46.431885,11.150121
4252,Castello di F. Nucleo Stazione,,46.287189,11.421064
4257,Egna-Parcheggio Rio Trodena,,46.320861,11.274668
4258,Mezzomonte di Sotto Al Km 5.6,,45.919387,11.134856
4261,Rovereto-Ospedale,,45.881782,11.037840
4263,Lizzana-Scuole,,45.870476,11.031082
4264,Lizzana,,45.866459,11.029938
4265,Lizzana-Rovercenter,,45.864119,11.028967
4267,Marco Via Ii Novembre 30,,45.847797,11.011652
4268,Marco-Officina,,45.843877,11.008605
4269,Marco,,45.841471,11.008232
4271,Marco-Zona Ind.Le,,45.825688,11.010956
4272,Serravalle,,45.809511,11.014713
4273,Serravalle Via Trento/Vanga R,,45.800938,11.023579
4274,S.Margherita,,45.796906,11.024864
4277,Marani,,45.781087,11.015930
4278,Marani-Via Campagnole,,45.777947,11.014511
4279,Marani-Fabbrica Bvm,,45.773563,11.012584
4280,Marani-Centrale Elettrica,,45.769911,11.010405
4282,Ala-Via Malfatti,,45.758386,11.000886
4283,Ala-Ospedale Bivio,,45.756530,10.998930
4285,Sfruz-Via Smarano 16,,46.339372,11.114523
4286,S.Orsola Bivio Loc. Dosi,,46.093569,11.283177
4288,Mezzolombardo "Prema",,46.202918,11.098520
4289,M.Bardo"Colonna Vasellame",,46.200360,11.100587
4290,Nave San Rocco-Municipio,,46.166820,11.107211
4291,Samone-S.P. 39 Al Km 1.4,,46.079260,11.523472
4292,Canal S.Bovo Loc.Al Lago,,46.167103,11.710155
4293,Tonadico-Madonna Della Luce,,46.186456,11.850412
4294,Pieve Tesino,,46.068166,11.610185
4295,Siror-Bivio Loc. Zocaril,,46.204414,11.818547
4297,Palù Del F.-Loc.Tolar Civ. 70,,46.129214,11.355266
4298,Scancio di S.-Bivio Nord,,46.193317,11.260220
4302,Folgaria-Palasport,,45.913508,11.173611
4303,Olle-Via Per Olle Civ. 55,,46.044314,11.460639
4304,Fornaci Via Cimirlo 2/4,,46.061772,11.227006
4307,Smarano Loc. Merlonga,,46.349288,11.110746
4308,Smarano Via Schwarz,,46.345071,11.111494
4309,Ruffre'-Cimitero,,46.414688,11.180441
4310,Preore-Loc. Molina,,46.047774,10.764534
4311,Condino-Loc. Mon,,45.865415,10.578113
4312,Vigo di Fassa-Museo Ladino,,46.423145,11.679969
4319,Sarnonico-Sc. Elementari,,46.419829,11.138403
4323,S.Cristoforo-Fs,,46.039761,11.234173
4324,Calceranica-Staz. Fs,,46.007270,11.240536
4325,Roncegno-Staz. Fs,,46.036514,11.398673
4326,Volano Ss 12,,45.917129,11.056339
4327,Borgo Centro-Staz. Fs,,46.051405,11.454426
4330,Garniga T. Loc. Gatter,,45.991139,11.080773
4331,Cavalese-V.Matteotti Km.22,,46.296021,11.455940
4332,Roncegno-Municipio,,46.050702,11.409642
4333,Prade Via Villanuova 1,,46.157067,11.742961
4335,Brez Via 4 Novembre 15,,46.429400,11.102788
4337,Maso Eccher,,46.021358,11.217837
4338,Campi,,45.911134,10.811283
4341,Fiave'-Loc. Doss,,45.996897,10.840787
4344,Tezze Via Nazionale,,45.987386,11.674140
4346,Pergine-Via Dell'angi,,46.049161,11.234423
4347,Pergine-Via Dell'angi,,46.049287,11.234428
4348,Serso Centrale Idroelettrica,,46.072714,11.247788
4350,Virti-Bar Giardino,,45.941442,11.232604
4351,Cela-Aguai-Paese,,46.301237,11.404072
4376,Lenzumo Via U.D'italia 2,,45.909332,10.726551
4379,Serravalle Via G.Cantore 21,,45.806690,11.017468
4381,Predazzo Via Fiamme Gialle,,46.303587,11.593642
4383,S.Michele Sp 58 Convitto,,46.195558,11.134840
4384,Fondo-Via 4 Novembre,,46.439968,11.132872
4385,Sfruz Via Smarano "Segheria",,46.340768,11.112971
4387,Tassullo-Ss 43 Cementificio,,46.349409,11.055871
4388,Levico Terme-C.So Centrale 15,,46.008563,11.303584
4389,Pian Dei Pradi-Rotatoria,,45.978337,11.236205
4390,Ponte Arche-Via Prati 8,,46.033789,10.870138
4391,Ponte Arche-Via Ballino,,46.031286,10.868637
4392,Campo Lomaso-Inizio Paese,,46.027169,10.868018
4393,Fiave'-Bivio Cornelle,,46.005605,10.832086
4394,Stenico Loc. Cros Da Val,,46.051741,10.864960
4406,Bastianelli Sp 124 Km. 3.2,,46.260386,11.084700
4412,Moscheri Civ. 23/B,,45.872262,11.071665
4413,Castello di Fiemme Via Roma,,46.285237,11.438522
4417,Vigo di Fassa-Strada Neva,,46.418311,11.676947
4418,Biacesa-Via Nuova,,45.865720,10.805986
4426,Rovere' D/Luna-Trentinalatte,,46.252438,11.184670
4432,Cicona-Albergo Cima D'asta,,46.160803,11.744054
4434,Rovere' D/Luna-Campo Sportivo,,46.248808,11.180110
4437,Pera di Fassa-Seg.Vaiolet,,46.438802,11.692741
4439,Folgaria Via N.Unite Civ. 38,,45.913960,11.183378
4440,Lamon,,46.046756,11.748691
4441,Zavena di Lamon,,46.057406,11.759861
4442,Oltra di Lamon,,46.064586,11.761671
4443,Campagna di Lamon,,46.052641,11.751259
4444,Lamon Bove,,46.042916,11.748391
4445,Lamon Bivio Piei,,46.035406,11.749641
4446,Pian Del Vescovo,,46.034556,11.755321
4447,Lamon-Distributore,,46.031566,11.756641
4449,Canal S.Bovo-Via Roma,,46.156076,11.731748
4452,Tomaselli Incr. Via Arcevenna,,46.070403,11.524310
4453,Civezzano-Loc. Osella,,46.102318,11.174819
4456,Santa Croce Sp 5,,46.024787,10.836441
4457,V.Cavedine-Via S.Udalrico,,45.975251,10.974969
4459,Fondo-Strada Delle Palade 46,,46.441158,11.140422
4460,Rovereto "Liceo Rosmini",,45.895066,11.043407
4461,Castelfondo-Castello,,46.448768,11.123872
4466,Cavareno Via Roma Civ. 20,,46.405818,11.135391
4467,Rallo-Via Nuova Civ. 103,,46.341089,11.045511
4481,Pergine Vals. Susà-V.Pomarol,,46.054240,11.230620
4482,Nosellari-Via Prati,,45.928233,11.253485
4486,Feltre Deposito,,46.010366,11.881119
4492,Cles-Via Ruatti I,,46.355999,11.030947
4493,Cles-Via Ruatti Ii,,46.359118,11.031140
4495,Pergine-V.Marconi 195,,46.067317,11.251306
4496,Pergine-Via Spolverine,,46.065206,11.247419
4497,Pergine-V.Baratieri Teatro,,46.063956,11.242351
4516,Pergine-V.Padova,,46.053710,11.242957
4519,Valcanover-Chiesetta,,46.023185,11.228453
4527,Valcanover-Ortofrutta Eccher,,46.030262,11.228350
4528,Maso Tasin,,46.027052,11.222160
4529,Maso Posser,,46.026158,11.219088
4530,Maso Pergher,,46.018407,11.221478
4531,Maso Dolzer,,46.029031,11.224062
4532,Maso Begher,,46.021651,11.221750
4533,Valcanover "Ex Lanterna",,46.033103,11.229407
4535,Valcanover "Casa Sociale",,46.025252,11.228626
4540,Viarago Bivio Cittadella,,46.085408,11.276139
4541,Susa'-Via Dei Ciliegi,,46.047837,11.218768
4613,Sorne-Troticoltura,,45.806259,10.952151
4616,Povo Via Mesiano,,46.064943,11.141679
4640,Campo Tassullo,,46.331168,11.052569
4664,Nomi-Sp 90 Tre.Cur.T.,,45.935963,11.088317
4666,Moena-Via Lowy 14-16,,46.376133,11.658577
4670,Breguzzo-Loc. Fass Civ. 210,,46.011886,10.702447
4671,Brusago-Via D.Alighieri 12,,46.178452,11.324666
4678,Vervo'-Scuola Materna,,46.307456,11.121384
4679,Pergine Vals.-Sc.Garbari,,46.066251,11.229915
4684,Folgaria-Via Filzi 41,,45.911216,11.180988
4687,Cembra-Loc. Predole 23/2,,46.169154,11.209925
4688,Livo-Sp 6 Al Km 6,,46.432701,11.019009
4691,Pranzo-Ex Cabina Enel,,45.921613,10.820781
4693,Cagno'-Terrazza Dei Sapori,,46.393652,11.034126
4695,Segno-V.Nazionaletrentingrana,,46.299073,11.069600
4704,Villazzano Fs-P/Golfi Urbani,,46.044756,11.139690
4708,Pergine-V.Marconi C.Riposo,,46.064770,11.242578
4709,Pergine-V.Marconi Itea,,46.066205,11.246528
4716,Passo Cereda Ss 347 Km7.2,,46.191933,11.896861
4720,Malè Scuola Elementare,,46.351617,10.915120
4721,Rovereto-Ist. Veronesi,,45.891286,11.034323
4722,Tres Via Nazionale 33/24,,46.322670,11.092418
4724,Brustolotti,,45.755971,11.016397
4725,Muravalle,,45.747909,11.038053
4726,Ronchi di Ala,,45.738932,11.065749
4729,Calieri,,45.742258,11.057554
4730,Ala-Via Perlè,,45.758767,11.006905
4733,Tuenno-Scuola Media,,46.327163,11.022798
4734,Tassullo-Scuola Materna,,46.334844,11.051888
4735,Riva Del G Vle Dante Alighieri,,45.886255,10.844525
4737,Riva D/Garda Viale Dei Tigli 8,,45.890465,10.843014
4738,Arco Via Battisti 4,,45.918381,10.882459
4739,Brione Campeggio,,45.881518,10.861895
4740,Riva V.Rovereto/Pascoli 3,,45.884957,10.849147
4741,Arco Via Mantova Cimitero,,45.911666,10.881381
4742,Riva V.Rovereto/Pascoli,,45.885012,10.849033
4743,Riva V.Rovereto Dif. Coop,,45.881612,10.854462
4746,Arco Via Mantova Dif.Cimitero,,45.911738,10.881409
4747,Riva D/Garda V.Le Dei Tigli 11,,45.890639,10.842853
4749,Riva Del G Vle Dante Alighieri,,45.886213,10.844356
4765,Riva Del G. Via Oleandri 24,,45.899534,10.844359
4780,Vestone,,45.708110,10.403516
4781,Lavenone,,45.738956,10.437543
4782,Idro,,45.734609,10.458099
4783,Anfo,,45.766240,10.492104
4786,Loc. Ferri,,45.740039,11.061804
4788,Ala Via Fornace,,45.757754,11.011794
4791,Covelo Via Villa Bassa,,46.098486,11.022229
4793,Facendi V.S.Antonio-Capitello,,46.221460,11.317781
4796,Costasavina Via S.Martino,,46.061224,11.220028
4797,Costasavina Via S.Martino 27,,46.060681,11.225682
4801,Coredo-Segheria Biasi,,46.351546,11.098083
4802,Trento "Forte Bus De Vela",,46.084939,11.070058
4803,Cagno'-Via Nazionale 58,,46.392655,11.044131
4806,Denno Via Colle Verde,,46.272809,11.048208
4809,Aldeno-Maso Canova Sud,,45.960076,11.092721
4810,Chiesurone di Pilcante,,45.787117,11.012143
4812,Carpeneda-Acquedotto,,45.916728,11.149958
4813,Rovereto-Stazione Trenitalia,,45.891820,11.034136
4817,Carano Via Carano 79,,46.290832,11.449060
4824,Vestone-Loc. Capparola,,45.714637,10.412930
4825,Lavenone-Via Nazionale,,45.724764,10.428774
4826,Lavenone-Zona Industriale,,45.731256,10.434312
4827,Idro-Loc. Tre Capitelli,,45.751515,10.479574
4828,Anfo-S.P. Km. 50.7,,45.788633,10.500408
4829,Anfo-Locanda Loc. S.Antonio,,45.799373,10.503631
4830,Loc. San Giacomo"Pizzeria",,45.808932,10.509783
4831,Ponte Caffaro-Via Caduti,,45.819870,10.524535
4832,Ponte Caffaro-Via Caduti 214,,45.825015,10.530160
4834,Vaneze-Via Del Lavachel,,46.055447,11.072394
4835,Loc. San Giacomo,,45.813054,10.515905
4845,Taio Via Roma. 122,,46.315062,11.069839
4847,S.Barbara,,45.896161,10.940914
4852,Villini-Via Mendola 5,,46.417827,11.195583
4856,Castelletto "Ponte Rinassico",,46.247843,11.062196
4857,Centa Fraz. Valle,,45.964834,11.232628
4858,Centa Fraz. Conci,,45.974350,11.244435
4859,Canale-Via Delle Stonfe,,46.048812,11.233387
4861,Premione-Via Alla Closura,,46.048034,10.871479
4862,Predazzo-Loc. Fol,,46.322330,11.597912
4863,Preghena-Sp 68 Bivio,,46.407458,11.011754
4865,Croviana-Via Nazionale 174,,46.341182,10.900305
4867,Loc. Canè,,46.119116,11.260806
4868,Loc. Fiorè,,46.120680,11.265439
4870,Tres Via Nazionale 12,,46.320661,11.093017
4871,Romeno-Via S.Romedio,,46.391671,11.117453
4874,S.Martino di C.-Via Pezgaiard,,46.259430,11.808832
4879,Tezze-V. Masetto Vecchio,,45.997899,11.668582
4880,Mezzolombardo-Sp64 Viadotto,,46.223117,11.081667
4881,Rovereto Via S.Giovanni Bosco,,45.891524,11.041678
4882,Campi Loc.Zumiani,,45.913493,10.816376
4886,Bordiana,,46.387216,10.981980
4889,Zencheri,,45.881634,11.157096
4891,Lamar-Ponte Avisio,,46.134630,11.110901
4893,Malgolo-Via Al Castello 6,,46.384563,11.094848
4894,Valda-Via Centrale 25,,46.210886,11.272480
4896,Dovena-Via Roma Civ. 4,,46.456546,11.127469
4897,Dovena-Inizio Paese,,46.457487,11.125253
4898,Denno-Via Marconi 46,,46.272566,11.052235
4904,Garniga T.-V.Bagni di Fieno 1,,45.999662,11.085768
4916,Nanno-Via Bergamo Civ. 5,,46.319385,11.046685
4919,Verdesina-Paese,,46.054909,10.713245
4921,Trentino Trasporti,,46.102234,11.094461
4923,Civezzano-Maso Zandonà,,46.087830,11.190620
4924,Mezzomonte-Loc. Barco,,45.922700,11.135809
4926,Rovere' Della Luna,,46.248924,11.169539
4939,Nago Bivio Z.A.I. Mala,,45.877840,10.898898
4941,Imer Via Nazionale 144,,46.149793,11.791693
4942,Cicona Sp Km 2.4,,46.160321,11.740895
4951,Romagnano-Maso Bozza,,45.997977,11.101563
4953,Casa Rossa-Bar Ristoro,,45.854845,10.566903
4954,Sopramonte-Via Belina,,46.072241,11.063013
4955,Sopramonte-Via Belina 11,,46.070915,11.063184
4957,Sopramonte "Bunaga",,46.069391,11.057334
4960,Nogarè-V.Di S.Giuseppe,,46.103967,11.211665
4961,Calliano Sp 49 "Cimitero",,45.936629,11.098121
4963,Lago di Terlago-Hotel Lillà,,46.097411,11.058247
4964,Lago di Terlago-Ponte,,46.095602,11.055256
4967,Ora-Stazione FsTrenitalia,,46.360976,11.297562
4972,Fraveggio Loc. Vernisi,,46.080553,10.995849
4973,S. Michele A/Adige-Sc.Elem.,,46.189874,11.134127
4979,Pergine-Via S.Pietro Asl,,46.063213,11.244429
4980,Pergine V.S.Pietro Parch.Curie,,46.063433,11.245601
4993,Sabbionara V.Pozza "Erta",,45.743006,10.967607
4994,Sabbionara Via Morielle,,45.742358,10.956580
5010,Morganti-Maso Romina,,45.930745,11.224036
5013,Ponzolotti,,45.738779,11.070718
5014,Revedea Sp 79 Civ. 18,,46.152752,11.747616
5018,Vigolo Baselga-Paese,,46.081576,11.044892
5025,Sardagna Civ.20,,46.073125,11.093579
5035,Noriglio Loc. Masi Brenta,,45.878437,11.084034
5037,Calceranica C.So Alpini Gmp,,46.001500,11.245598
5038,Levico T. Fraz. Campiello,,46.018805,11.353077
5043,Madonna di C.-Loc.Paluac,,46.205362,10.813260
5050,Passo Cereda Civ 9,,46.192636,11.902743
5051,Samoclevo-Bivio,,46.365038,10.937469
5053,Termon Nord,,46.270225,11.036677
5055,Ragoli "Macelleria",,46.051624,10.775140
5060,Villini Dell'alpe Via Bolzano,,46.418562,11.189171
5063,Coredo Via Tavon 42,,46.353683,11.088052
5064,Coredo Via Trento,,46.347117,11.086840
5065,Lavarone Civ. 61,,45.939296,11.273852
5067,Andalo-Bivio Priori,,46.177371,11.017827
5075,Castelfondo Via Dante,,46.452529,11.121792
5077,S.Michele "Fondazione-Mensa",,46.194907,11.135489
5080,Cogolo Polo Scolastico,,46.347399,10.696840
5082,Strigno Via Colle Civ. 6,,46.067170,11.519093
5087,M.Do Sc. Sup.Martini,,46.217566,11.093386
5088,Sabbionara Via De Gasperi,,45.738765,10.952482
5090,Gionghi-Polo Scolastico,,45.940038,11.268658
5100,Faedo Maso Cento Finestre,,46.193510,11.144248
5102,Molveno Deposito,,46.149626,10.980086
5103,Levico T. Polo Scolastico,,46.013611,11.306300
5111,Loc. Coveli Civ. 35,,46.197724,11.143660
5112,Lover,,46.250788,11.026344
5113,Fondo-Via Iv Novembre,,46.441452,11.130891
5116,Cavareno Via Roen 32,,46.403976,11.139552
5119,Vervo',,46.307457,11.118916
5134,Masi-Via Micelette Civ. 4,,46.281815,11.499285
5135,Masi di Cavedine-Maso Reigl,,45.972251,10.980800
5136,Masi di Cavedine-Maso Samuele,,45.967937,10.979949
5137,Masi di Cavedine-Maso Silvio,,45.966582,10.978171
5138,Masi di Cavedine-Incr V.Zurlon,,45.964407,10.976932
5139,Masi di Cavedine Sotto Civ. 6,,45.966510,10.973483
5141,Coredo Via Zambaroni 12,,46.349177,11.088842
5144,Torchio Bivio Cogatti,,46.091010,11.196994
5150,Campitello Hotel Salvan,,46.474285,11.738380
5162,Cire' Via Al Dos De La Roda 12,,46.074601,11.211551
5165,Calavino-Via Battisti Civ 20,,46.040787,10.982034
5169,Trento Ss45 "Scala",,46.077367,11.099792
5173,Strigno Fs-Bretella Mag.Brico,,46.052372,11.510935
5175,Campi Bv 37 Dir-X Loc Parisi,,45.911446,10.808676
5180,Imer-Loc. Busarel,,46.140566,11.773656
5182,Tres Via Predaia Inc. V.Tavana,,46.322055,11.099929
5185,Mezzano-Sc.Elementari,,46.156586,11.808305
5190,Centa Bv Tiecheri-Frisanchi,,45.965305,11.224658
5202,Romagnano Loc.Torricella Sft,,45.993002,11.098521
5203,Sardagna Civ. 22,,46.069494,11.095252
5205,Grigno Casearia Monti Trentini,,46.006597,11.649483
5207,Baitoni-Via Aldo Sette Civ.1,,45.813643,10.547147
5213,Mezzano-Via Molaren 27,,46.160760,11.817183
5231,Barbine Sp 239 Km. 0.500,,46.157203,11.753757
5236,Favrio Civ. 65,,45.999626,10.852372
5237,Carbonare Via Manzoni,,45.934041,11.229044
5239,Viote Golfo Sulla Sp85,,46.021567,11.042522
5240,Cadine Strada di Cadine 5,,46.086923,11.069368
5248,Telve di Sopra Via S.Pio X,,46.072848,11.471348
5252,Cavareno Via Roen 59,,46.400741,11.140284
5253,Porte Via Al Brentegam,,45.880954,11.052889
5257,Dambel-Loc. Casette,,46.409036,11.102603
5259,Baitoni-V. Aldo Sette Civ.1,,45.812948,10.546639
5260,Viale Industria Amnu,,46.068689,11.233672
5264,Marcena-Sp 6,,46.442657,11.011787
5266,Molveno-V.Nazionale,,46.141903,10.963974
5268,Ortise' C/O Accesso Nord Paese,,46.328622,10.784462
5273,Molina di F.-Via Weber/Rive,,46.273244,11.422097
5275,Condino Sp123 Stab. Illen,,45.896086,10.606683
5276,Aldeno Viale Europa,,45.982499,11.093579
5277,Aldeno-Via Florida,,45.977966,11.092905
5278,Serrada Via Pasubio,,45.888655,11.153269
5280,Brustolotti Loc. Rocca,,45.753211,11.026404
5297,Speccheri Sp 219 Km 1.100,,45.774515,11.122089
5302,Stenico-Loc. Ca' Bianca,,46.052009,10.871109
5352,Castello-Bivio di Stavel,,46.321463,10.782423
5353,Ronzo Chienis-V.Pra Da Le Rì,,45.891098,10.949606
5375,Fai Paganella,,46.175418,11.068633
5385,Manzano-Bivio,,45.864542,10.950121
5392,Pian Del Gac Civ. 25,,46.133573,11.205898
5394,Massone Via Cappuccini,,45.920537,10.901734
5395,Ceole "Cementificio",,45.909601,10.855214
5400,Cismon Del Grappa-Fs,,45.919665,11.729849
5401,S.Marino-Staz. Fs,,45.899530,11.694247
5402,Carpanè-Staz. Fs,,45.859998,11.660863
5403,S.Nazario-Staz. Fs,,45.839699,11.687865
5404,Solagna-Staz. Fs,,45.813806,11.718914
5405,Bassano Del Grappa-St.Fs,,45.766709,11.741650
5425,Zortea Bar Bellavista,,46.163628,11.753067
5449,Ampola "Parch. Biotopo",,45.872717,10.652963
5458,Terlago Via Omigo,,46.097912,11.047916
5460,Hacleri-Maso Markl,,46.121312,11.339035
5462,Ospedale Villa Rosa,,46.064229,11.247702
5464,Loc. Giare,,46.319956,10.819227
5466,Taio Via Roma,,46.313915,11.070562
5470,Regnana Alta,,46.151194,11.310710
5475,Rovereto-Via Savioli,,45.892086,11.037432
5479,Claiano Nord-Sp 140,,46.316343,10.773087
5483,Mattarello-Via Catoni,,46.003128,11.126824
5484,Mattarello-Ex St.Vestimenta,,46.000537,11.126173
